"","CID","CNAME","CADDR","Response_Address","Response_Latitude","Response_Longitude","village"
"1",1458103,"冠帝有限公司","臺北市大同區環河北路２段１８５巷６號２樓","No. 6, Lane 185, Section 2, Huanhe N Rd, Datong District, Taipei City, Taiwan 103",25.0681669,121.5094811,"國順里"
"2",3351015,"泰電電業股份有限公司","臺北市中正區博愛路76號8樓","No. 76, Bo'ai Rd, Zhongzheng District, Taipei City, Taiwan 100",25.0446759,121.511328,"光復里"
"3",3373502,"得恩堂眼鏡有限公司","臺北市中正區羅斯福路1段125號2樓","No. 125, Section 1, Roosevelt Rd, Zhongzheng District, Taipei City, Taiwan 100",25.0303525,121.5203321,"新營里"
"4",3389125,"雪龍眼鏡有限公司","臺北市萬華區漢中街117號1樓","No. 117, Hanzhong St, Wanhua District, Taipei City, Taiwan 108",25.043019,121.507599,"西門里"
"5",3618703,"寶島鐘錶股份有限公司","臺北市內湖區瑞光路513巷30號6樓","No. 30, Lane 513, Ruiguang Rd, Neihu District, Taipei City, Taiwan 114",25.079915,121.5697969,"西湖里"
"6",4196414,"工商財經數位股份有限公司","臺北市萬華區大理街132號","No. 132, Dali St, Wanhua District, Taipei City, Taiwan 108",25.03378,121.496272,"糖部里"
"7",4204815,"古一堂企業股份有限公司","臺北市中山區新生北路1段23號5樓之1",NA,NA,NA,NA
"8",4224170,"靈智廣告股份有限公司","臺北市中山區南京東路3段131號8樓","No. 131, Section 3, Nanjing E Rd, Zhongshan District, Taipei City, Taiwan 104",25.0521294,121.5406731,"復華里"
"9",4237169,"常富企業股份有限公司","臺北市大安區敦化南路1段336號8樓之1","No. 336, Section 1, Dunhua S Rd, Da’an District, Taipei City, Taiwan 106",25.035,121.54847,"德安里"
"10",4327387,"永全貨運有限公司","臺北市南港區東新街187號","No. 187, Dongxin St, Nangang District, Taipei City, Taiwan 115",25.0467258,121.5933811,"新光里"
"11",4422501,"佐佑投資股份有限公司","臺北市中山區中山北路2段96號","No. 96, Section 2, Zhongshan N Rd, Zhongshan District, Taipei City, Taiwan 104",25.0595004,121.5226881,"集英里"
"12",4449826,"更豐盛眼鏡有限公司","臺北市大同區寧夏路26之3號","No. 26-3, Ningxia Rd, Datong District, Taipei City, Taiwan 103",25.0556399,121.5150578,"星明里"
"13",4503362,"奇威行有限公司","臺北市大同區太原路11之3號1樓","No. 11-3, Taiyuan Rd, Datong District, Taipei City, Taiwan 103",25.0498814,121.5151731,"建明里"
"14",4516628,"視華國際有限公司","臺北市中山區長安東路2段31號5樓","No. 31, Section 2, Chang'an E Rd, Zhongshan District, Taipei City, Taiwan 104",25.048623,121.5311785,"興亞里"
"15",4526822,"松谷企業股份有限公司","臺北市信義區信義路5段5號","No. 5, Section 5, Xinyi Rd, Xinyi District, Taipei City, Taiwan 110",25.0332591,121.562324,"西村里"
"16",4533210,"宏記寶成鐘錶眼鏡有限公司","臺北市萬華區寶興街71號","No. 71, Baoxing St, Wanhua District, Taipei City, Taiwan 108",25.0264799,121.494255,"忠德里"
"17",4655228,"富亞企業有限公司","臺北市中正區羅斯福路1段24之1號2樓","No. 24, Section 1, Roosevelt Rd, Zhongzheng District, Taipei City, Taiwan 100",25.0316419,121.5188426,"龍福里"
"18",4666338,"大地眼鏡有限公司","臺北市中正區忠孝東路１段７６號１樓","No. 76, Section 1, Zhongxiao E Rd, Zhongzheng District, Taipei City, Taiwan 100",25.0444136,121.5239202,"幸福里"
"19",4690983,"大魯閣纖維股份有限公司","臺北市內湖區民善街83號3樓","No. 83, Minshan St, Neihu District, Taipei City, Taiwan 114",25.0593926,121.5761921,"湖元里"
"20",4869642,"牧友實業有限公司","臺北市文山區羅斯福路5段166號6樓","No. 166, Section 5, Roosevelt Rd, Wenshan District, Taipei City, Taiwan 116",25.0047318,121.5385343,"萬年里"
"21",4894754,"辛亥殯儀股份有限公司","臺北市大安區臥龍街188巷23號1樓","No. 23, Lane 188, Wolong St, Da’an District, Taipei City, Taiwan 106",25.0173879,121.5506883,"黎元里"
"22",4913416,"正一乾冰有限公司","臺北市文山區羅斯福路5段192巷25號1樓","No. 25, Lane 192, Section 5, Roosevelt Rd, Wenshan District, Taipei City, Taiwan 116",25.0033648,121.5369765,"萬年里"
"23",4964250,"東森國際股份有限公司","臺北市大安區復興南路1段368號5樓、8樓及370號6樓、11樓","Da’an District, Taipei City, Taiwan",25.0261583,121.5427093,"Taiwan"
"24",4987388,"乙農企業股份有限公司","臺北市中山區農安街57號2樓之6","No. 57, Nong'an St, Zhongshan District, Taipei City, Taiwan 104",25.0650034,121.527065,"晴光里"
"25",4987726,"蘋果樹科技有限公司","臺北市大安區金華街223之8號5樓","No. 223-8, Jinhua St, Da’an District, Taipei City, Taiwan 106",25.029877,121.529397,"永康里"
"26",5007994,"北杰企業有限公司","臺北市南港區忠孝東路7段611號(1樓)","No. 611, Section 7, Zhongxiao E Rd, Nangang District, Taipei City, Taiwan 115",25.0532536,121.6151695,"中南里"
"27",5051822,"立和創新有限公司","臺北市中山區長安東路1段16號8樓之3","No. 16, Section 1, Chang'an E Rd, Zhongshan District, Taipei City, Taiwan 104",25.049288,121.5234278,"正得里"
"28",5064431,"公誠興業股份有限公司","臺北市內湖區民善街89號3樓","No. 89, Minshan St, Neihu District, Taipei City, Taiwan 114",25.060702,121.5754562,"湖元里"
"29",5115635,"健答有限公司","臺北市中正區臨沂街25巷11號","No. 11, Lane 25, Linyi St, Zhongzheng District, Taipei City, Taiwan 100",25.0415177,121.5311027,"幸市里"
"30",5134324,"弘雅圖書股份有限公司","臺北市松山區復興北路386號地下1樓、地上1、2、3、4樓","No. 386, Fuxing N Rd, Songshan District, Taipei City, Taiwan 105",25.0615717,121.5443575,"民有里"
"31",5135956,"邱氏鼎食品企業股份有限公司","臺北市中正區博愛路99號1、2樓","No. 99, Bo'ai Rd, Zhongzheng District, Taipei City, Taiwan 100",25.043002,121.511644,"光復里"
"32",5405206,"亞茵企業有限公司","臺北市南港區研究院路3段203號","No. 203, Section 3, Yanjiuyuan Rd, Nangang District, Taipei City, Taiwan 115",25.0331849,121.611587,"九如里"
"33",5506582,"上毅企業有限公司","臺北市文山區景興路15號2樓","No. 15, Jingxing Rd, Wenshan District, Taipei City, Taiwan 116",24.998041,121.544806,"興福里"
"34",5643495,"尚洪工程有限公司","臺北市萬華區昆明街34號5樓之2","No. 34, Kunming St, Wanhua District, Taipei City, Taiwan 108",25.0470643,121.5058136,"福星里"
"35",7020902,"大和實業股份有限公司","臺北市萬華區忠孝西路2段38號9樓","No. 38, Section 2, Zhongxiao W Rd, Wanhua District, Taipei City, Taiwan 108",25.0483097,121.5078623,"福星里"
"36",7268328,"美光眼鏡有限公司","臺北市大安區延吉街157之4號","No. 157-4, Yanji St, Da’an District, Taipei City, Taiwan 106",25.0394994,121.5551286,"正聲里"
"37",7305506,"南僑化學工業股份有限公司","臺北市大同區延平北路4段100號","No. 100, Section 4, Yanping N Rd, Datong District, Taipei City, Taiwan 103",25.0715776,121.5108143,"鄰江里"
"38",7613308,"亞東開發科技有限公司","臺北市士林區前港街120巷1號1樓","No. 1, Lane 120, Qiangang St, Shilin District, Taipei City, Taiwan 111",25.0850118,121.518093,"百齡里"
"39",7723157,"鴻邦印刷事業有限公司","臺北市大同區貴德街3號","No. 3, Guide St, Datong District, Taipei City, Taiwan 103",25.052446,121.508106,"玉泉里"
"40",7733747,"牛耳時裝有限公司","臺北市大安區信義路2段228巷4號1樓","No. 4, Lane 228, Section 2, Xinyi Rd, Da’an District, Taipei City, Taiwan 106",25.033005,121.5317,"福住里"
"41",9419218,"悅創國際科技有限公司","臺北市大安區大安路1段145號2樓","No. 145, Section 1, Da'an Rd, Da’an District, Taipei City, Taiwan 106",25.0382505,121.5462267,"仁愛里"
"42",9430207,"宏立金屬有限公司","臺北市信義區松信路18號5樓","No. 18, Songxin Rd, Xinyi District, Taipei City, Taiwan 110",25.04848,121.572066,"雅祥里"
"43",9464521,"晟翔股份有限公司","臺北市大同區長安西路106號9樓之1","No. 106, Chang'an W Rd, Datong District, Taipei City, Taiwan 103",25.0504232,121.5186616,"建明里"
"44",9464803,"崇德禮儀用品有限公司","臺北市文山區木新路3段232巷3號3樓","No. 3, Lane 232, Section 3, Muxin Rd, Wenshan District, Taipei City, Taiwan 116",24.9815983,121.5590113,"樟文里"
"45",9472141,"祥田實業有限公司","臺北市中正區信義路2段79巷36號","No. 36, Lane 79, Section 2, Keelung Rd, Xinyi District, Taipei City, Taiwan 110",25.029305,121.5599585,"景聯里"
"46",11261451,"旭懋企業股份有限公司","臺北市中山區松江路67號10樓之6","No. 67, Songjiang Rd, Zhongshan District, Taipei City, Taiwan 104",25.0492489,121.5331618,"朱園里"
"47",11298458,"宏坤企業有限公司","臺北市中山區伊通街52巷12號(1樓)","No. 12, Lane 52, Yitong St, Zhongshan District, Taipei City, Taiwan 104",25.0512921,121.5342141,"朱園里"
"48",11511090,"皇冠金屬工業股份有限公司","臺北市中山區復興南路1段2號8樓之1","No. 2, Section 1, Fuxing S Rd, Zhongshan District, Taipei City, Taiwan 104",25.047121,121.54356,"埤頭里"
"49",11565010,"格蘭呢羢西服有限公司","臺北市中山區中山北路2段81之4號","No. 81-4, Section 2, Zhongshan N Rd, Zhongshan District, Taipei City, Taiwan 104",25.0585527,121.5230879,"聚盛里"
"50",11849565,"翠園股份有限公司","臺北市中山區民權東路2段139號","No. 139, Section 2, Minquan E Rd, Zhongshan District, Taipei City, Taiwan 104",25.0626312,121.5350927,"行政里"
"51",12120156,"吉卉莊花藝有限公司","臺北市中山區民權東路２段１２９號２樓","No. 129, Section 2, Minquan E Rd, Zhongshan District, Taipei City, Taiwan 104",25.0626771,121.5347474,"行政里"
"52",12150828,"六順禮儀用品有限公司","臺北市中山區民權東路２段１２３號１樓","No. 123, Section 2, Minquan E Rd, Zhongshan District, Taipei City, Taiwan 104",25.0626309,121.5346188,"行政里"
"53",12154916,"吉焮貿易有限公司","臺北市中山區松江路152號9樓之13","No. 152, Songjiang Rd, Zhongshan District, Taipei City, Taiwan 104",25.0542589,121.5328528,"中吉里"
"54",12187894,"采琳國際小客車租賃有限公司","臺北市中正區泰安街2巷4之2號","No. 4-2, Lane 2, Tai'an St, Zhongzheng District, Taipei City, Taiwan 100",25.0404018,121.5273882,"文北里"
"55",12192876,"燿興企業有限公司","臺北市北投區中正街11號1樓","No. 11, Zhongzheng St, Beitou District, Taipei City, Taiwan 112",25.1318591,121.5009955,"中央里"
"56",12193538,"群佳股份有限公司","臺北市中山區復興北路86號9樓","No. 86, Fuxing N Rd, Zhongshan District, Taipei City, Taiwan 104",25.0514195,121.5438924,"力行里"
"57",12197892,"長城生命規劃股份有限公司","臺北市中山區民權東路2段135巷16號1樓",NA,NA,NA,NA
"58",12277282,"拓昶貿易股份有限公司","臺北市中正區福州街57、59號2樓","No. 57, Fuzhou St, Zhongzheng District, Taipei City, Taiwan 100",25.0267653,121.514473,"螢雪里"
"59",12297273,"上翔企業管理顧問有限公司","臺北市中山區長春路267號4樓之1","No. 267, Changchun Rd, Zhongshan District, Taipei City, Taiwan 104",25.0548069,121.5411707,"朱馥里"
"60",12341051,"康舒科技股份有限公司","臺北市松山區南京東路5段99號11樓","No. 99, Section 5, Nanjing E Rd, Songshan District, Taipei City, Taiwan 105",25.0516953,121.5606501,"東光里"
"61",12342777,"懿鑫實業有限公司","臺北市中山區八德路2段267巷9弄4號","No. 4, Alley 9, Lane 267, Section 2, Bade Rd, Zhongshan District, Taipei City, Taiwan 104",25.0474023,121.5416147,"朱崙里"
"62",12343712,"飛揚聯合科技股份有限公司","臺北市中山區農安街57號2樓之6","No. 57, Nong'an St, Zhongshan District, Taipei City, Taiwan 104",25.0650034,121.527065,"晴光里"
"63",12346393,"永再生有限公司","臺北市中山區民權東路2段113巷1弄13號1樓",NA,NA,NA,NA
"64",12355322,"永承文具印刷有限公司","臺北市中山區中山北路2段115巷27號1樓","No. 27, Lane 115, Section 2, Zhongshan N Rd, Zhongshan District, Taipei City, Taiwan 104",25.0609631,121.5240949,"聚葉里"
"65",12367241,"恆安禮儀有限公司","臺北市中山區民權東路2段176號2樓","No. 176, Section 2, Minquan E Rd, Zhongshan District, Taipei City, Taiwan 104",25.0621878,121.5356145,"松江里"
"66",12393395,"新富社殯儀有限公司","臺北市萬華區貴陽街2段177號1樓限於商業區部份經營","No. 177, Section 2, Guiyang St, Wanhua District, Taipei City, Taiwan 108",25.0402357,121.5001424,"菜園里"
"67",12430716,"得恩欣業有限公司","臺北市中山區新生北路3段88巷50號1樓","No. 50, Lane 88, Section 3, Xinsheng N Rd, Zhongshan District, Taipei City, Taiwan 104",25.0678347,121.5260127,"圓山里"
"68",12438891,"頤德殯儀有限公司","臺北市中山區民權東路２段１２３號１樓","No. 123, Section 2, Minquan E Rd, Zhongshan District, Taipei City, Taiwan 104",25.0626309,121.5346188,"行政里"
"69",12461442,"鈺翔廣告股份有限公司","臺北市中山區建國北路3段79號7樓","No. 79, Section 3, Jianguo N Rd, Zhongshan District, Taipei City, Taiwan 104",25.0654132,121.5370057,"行孝里"
"70",12477985,"煇宏企業有限公司","臺北市信義區忠孝東路5段236巷3弄11號7樓","No. 11, Alley 3, Lane 236, Section 5, Zhongxiao E Rd, Xinyi District, Taipei City, Taiwan 110",25.04051,121.572667,"廣居里"
"71",12489201,"風雷益系統科技有限公司","臺北市中山區中山北路2段27巷3之3號3樓","No. 3-3, Lane 27, Section 2, Zhongshan N Rd, Zhongshan District, Taipei City, Taiwan 104",25.053252,121.5234673,"康樂里"
"72",12489693,"台灣亞柏有限公司","臺北市中正區金門街１１巷１６號１樓","No. 16, Lane 11, Jinmen St, Zhongzheng District, Taipei City, Taiwan 100",25.0213089,121.5239304,"河堤里"
"73",12533868,"正錩鐘錶眼鏡有限公司","臺北市內湖區康寧路3段189巷12弄14號1樓","No. 14, Alley 12, Lane 189, Section 3, Kangning Rd, Neihu District, Taipei City, Taiwan 114",25.0699542,121.6128508,"安湖里"
"74",12554011,"懷親禮儀有限公司","臺北市大安區辛亥路3段284巷7號1樓","No. 7, Lane 284, Section 3, Xinhai Rd, Da’an District, Taipei City, Taiwan 106",25.014594,121.551814,"學府里"
"75",12555807,"善德殯儀有限公司","臺北市大安區辛亥路3段284巷7號1樓","No. 7, Lane 284, Section 3, Xinhai Rd, Da’an District, Taipei City, Taiwan 106",25.014594,121.551814,"學府里"
"76",12556637,"永生花卉有限公司","臺北市中山區農安街277號2樓之1","No. 277, Nong'an St, Zhongshan District, Taipei City, Taiwan 104",25.0648628,121.5362557,"行政里"
"77",12633249,"人有緣企管顧問有限公司","臺北市中山區建國北路２段３３號１５樓之５","No. 33, Section 2, Jianguo N Rd, Zhongshan District, Taipei City, Taiwan 104",25.0550136,121.5373028,"朱馥里"
"78",12643540,"樺里生物科技有限公司","臺北市中山區長安東路１段１６號７樓之１","No. 16, Section 1, Chang'an E Rd, Zhongshan District, Taipei City, Taiwan 104",25.049288,121.5234278,"正得里"
"79",12651169,"金義堂殯儀有限公司","臺北市中山區民權東路2段198號2樓","No. 198, Section 2, Minquan E Rd, Zhongshan District, Taipei City, Taiwan 104",25.0621635,121.5362385,"松江里"
"80",12651739,"精戰理財顧問股份有限公司","臺北市大同區長安西路88號7樓","No. 88, Chang'an W Rd, Datong District, Taipei City, Taiwan 103",25.0503601,121.5190452,"建明里"
"81",12655186,"易理圖網路科技股份有限公司","臺北市中正區南海路48號地下樓","Nanhai Rd, Zhongzheng District, Taipei City, Taiwan 100",25.032236,121.5157025,"Taipei City"
"82",12655849,"神龍仙境國際開發股份有限公司","臺北市中正區忠孝東路１段８３號１６樓","No. 83, Section 1, Zhongxiao E Rd, Zhongzheng District, Taipei City, Taiwan 100",25.044325,121.526352,"梅花里"
"83",12656397,"漢世紀數位文化股份有限公司","臺北市大安區敦化南路2段1號4樓","No. 1, Section 2, Dunhua S Rd, Da’an District, Taipei City, Taiwan 106",25.0330358,121.5492181,"義安里"
"84",12657038,"慈園禮儀用品有限公司","臺北市大安區臥龍街171號1樓","No. 171, Wolong St, Da’an District, Taipei City, Taiwan 106",25.0182195,121.5514766,"黎元里"
"85",12658326,"四維國際殯儀有限公司","臺北市中山區民權東路２段１７４號２樓","No. 174, Section 2, Minquan E Rd, Zhongshan District, Taipei City, Taiwan 104",25.0621865,121.5355935,"松江里"
"86",12659774,"堅持創意整合行銷股份有限公司","臺北市萬華區昆明街76號7樓之5","No. 76, Kunming St, Wanhua District, Taipei City, Taiwan 108",25.0457146,121.5054442,"萬壽里"
"87",12661146,"長明生命科技股份有限公司","臺北市中山區民權東路2段69號8樓","No. 69, Section 2, Minquan E Rd, Zhongshan District, Taipei City, Taiwan 104",25.0627328,121.5313881,"新福里"
"88",12663340,"基因數碼科技股份有限公司","臺北市內湖區洲子街194、196號8樓","No. 194, Zhouzi St, Neihu District, Taipei City, Taiwan 114",25.0814263,121.5664929,"西湖里"
"89",12665086,"美視特光學有限公司","臺北市中山區吉林路388號1樓","No. 388, Jilin Rd, Zhongshan District, Taipei City, Taiwan 104",25.0649932,121.5302204,"新庄里"
"90",12665754,"吉帝開發有限公司","臺北市中山區民生東路１段５８號７樓","No. 58, Section 1, Minsheng E Rd, Zhongshan District, Taipei City, Taiwan 104",25.0579964,121.5249363,"中山里"
"91",12669007,"國聯實業股份有限公司","臺北市中山區建國北路２段３３號１５樓之２","No. 33, Section 2, Jianguo N Rd, Zhongshan District, Taipei City, Taiwan 104",25.0550136,121.5373028,"朱馥里"
"92",12670412,"芙康健康產業股份有限公司","臺北市信義區基隆路2段131之20號13樓","No. 131-20, Section 2, Keelung Rd, Xinyi District, Taipei City, Taiwan 110",25.0275216,121.5563995,"嘉興里"
"93",12671545,"獅友樂集有限公司","臺北市中山區復興北路178號4樓之9","No. 178, Fuxing N Rd, Zhongshan District, Taipei City, Taiwan 104",25.0542459,121.543802,"復華里"
"94",12677772,"衣航企業有限公司","臺北市中山區林森北路485巷14號1樓","No. 14, Lane 485, Linsen N Rd, Zhongshan District, Taipei City, Taiwan 104",25.0611725,121.5262463,"聚葉里"
"95",12679841,"榮耀生命事業有限公司","臺北市中山區松江路２０６號６樓之４","No. 206, Songjiang Rd, Zhongshan District, Taipei City, Taiwan 104",25.0578266,121.5328249,"中吉里"
"96",12683768,"誠安質量檢驗股份有限公司","臺北市內湖區新湖三路23號5樓","No. 23, Xinhu 3rd Rd, Neihu District, Taipei City, Taiwan 114",25.0621857,121.5741105,"湖元里"
"97",12684035,"宏盛文具印刷有限公司","臺北市中山區中原街48號","No. 48, Zhongyuan St, Zhongshan District, Taipei City, Taiwan 104",25.058411,121.5288073,"中庄里"
"98",12686266,"觀龍陵股份有限公司","臺北市中山區民生東路3段15號3樓","No. 15, Section 3, Minsheng E Rd, Zhongshan District, Taipei City, Taiwan 104",25.0580736,121.5381457,"江山里"
"99",12686391,"永生禮儀有限公司","臺北市中山區農安街277號2樓之1","No. 277, Nong'an St, Zhongshan District, Taipei City, Taiwan 104",25.0648628,121.5362557,"行政里"
"100",12687286,"鎂塔數位科技股份有限公司","臺北市中山區松江路76號7樓之1","No. 76, Songjiang Rd, Zhongshan District, Taipei City, Taiwan 104",25.0496825,121.5327305,"興亞里"
"101",12689046,"秀銘科技有限公司","臺北市中正區林森南路4號7樓","No. 4, Linsen S Rd, Zhongzheng District, Taipei City, Taiwan 100",25.043957,121.5229754,"幸福里"
"102",12689806,"順陽禮儀股份有限公司","臺北市文山區萬寧街27號1樓","No. 27, Wanning St, Wenshan District, Taipei City, Taiwan 116",25.003491,121.564962,"萬美里"
"103",12690043,"品龍天股份有限公司","臺北市中山區合江街１００巷１７號１樓","No. 17, Lane 100, Hejiang St, Zhongshan District, Taipei City, Taiwan 104",25.0584454,121.5383932,"江山里"
"104",12690938,"慈緣實業股份有限公司","臺北市大安區臥龍街256號1樓","No. 256, Wolong St, Da’an District, Taipei City, Taiwan 106",25.0182392,121.5573502,"黎和里"
"105",12696285,"視網國際股份有限公司","臺北市中正區仁愛路1段6號6樓之3",NA,NA,NA,NA
"106",12696530,"華緹國際開發有限公司","臺北市大安區復興南路2段327之2號","No. 327-2, Section 2, Fuxing S Rd, Da’an District, Taipei City, Taiwan 106",25.023778,121.5436652,"臥龍里"
"107",12715065,"耀陽創意整合行銷有限公司","臺北市中山區中山北路3段45號4樓之7","No. 45, Section 3, Zhongshan N Rd, Zhongshan District, Taipei City, Taiwan 104",25.066535,121.5225292,"晴光里"
"108",12739171,"海文實業有限公司","臺北市萬華區中華路2段376號1樓","No. 376, Section 2, Zhonghua Rd, Wanhua District, Taipei City, Taiwan 108",25.0288053,121.504986,"新和里"
"109",12751152,"世海興業有限公司","臺北市大安區安居街129號1樓","No. 129, Anju St, Da’an District, Taipei City, Taiwan 106",25.0180603,121.5517053,"黎元里"
"110",12792935,"全家眼鏡有限公司","臺北市信義區松山路558號1樓","No. 558, Songshan Rd, Xinyi District, Taipei City, Taiwan 110",25.0374459,121.578128,"國業里"
"111",12797615,"禾米國際股份有限公司","臺北市信義區光復南路473巷11弄40號4樓之3","No. 40, Alley 11, Lane 473, Guangfu S Rd, Xinyi District, Taipei City, Taiwan 110",25.0339564,121.5594928,"中興里"
"112",12811145,"慈蓮國際開發股份有限公司","臺北市中山區伊通街５８號２樓","No. 58, Yitong St, Zhongshan District, Taipei City, Taiwan 104",25.0515222,121.5346333,"朱園里"
"113",12818392,"大掌櫃事業有限公司","臺北市內湖區民權東路６段１２３巷２８號３樓之２","No. 28, Lane 123, Section 6, Minquan E Rd, Neihu District, Taipei City, Taiwan 114",25.070125,121.5928717,"寶湖里"
"114",12842668,"引光生物科技有限公司","臺北市中山區吉林路150號4樓之5","No. 150, Jilin Rd, Zhongshan District, Taipei City, Taiwan 104",25.0561499,121.5300314,"中原里"
"115",12853931,"大正殯儀服務有限公司","臺北市大同區華陰街４５號","No. 45, Huayin St, Datong District, Taipei City, Taiwan 103",25.0494237,121.5191418,"建明里"
"116",12854410,"鷹眼光學股份有限公司","臺北市內湖區文德路7號1樓","No. 7, Wende Rd, Neihu District, Taipei City, Taiwan 114",25.0785252,121.5804615,"港富里"
"117",12855945,"映力彩色印刷事業有限公司","臺北市內湖區內湖路2段179巷216號10樓","No. 216, Lane 179, Section 2, Neihu Rd, Neihu District, Taipei City, Taiwan 114",25.0841452,121.5852818,"湖濱里"
"118",12856331,"宏閔國際有限公司","臺北市中山區建國北路２段２６２號１樓",NA,NA,NA,NA
"119",12860412,"雍禾印務事業股份有限公司","臺北市大安區杭州南路2段93巷52號1樓","No. 52, Lane 93, Section 2, Hangzhou S Rd, Da’an District, Taipei City, Taiwan 106",25.0284523,121.523734,"錦華里"
"120",12862045,"順發生活事業股份有限公司","臺北市中山區伊通街５８號２樓","No. 58, Yitong St, Zhongshan District, Taipei City, Taiwan 104",25.0515222,121.5346333,"朱園里"
"121",12862087,"新世爵數位科技有限公司","臺北市大安區羅斯福路3段335號11樓之3","No. 335, Section 3, Roosevelt Rd, Da’an District, Taipei City, Taiwan 106",25.0168438,121.5324145,"大學里"
"122",12862636,"銓昇企業管理顧問有限公司","臺北市信義區莊敬路325巷60號3樓","No. 60, Lane 325, Zhuangjing Rd, Xinyi District, Taipei City, Taiwan 110",25.0289791,121.5650359,"三張里"
"123",12865514,"異視行銷市場調查股份有限公司","臺北市中山區復興北路2號7樓之3","No. 2, Fuxing N Rd, Zhongshan District, Taipei City, Taiwan 104",25.047918,121.5437006,"朱崙里"
"124",12865789,"幫浦群網股份有限公司","臺北市內湖區成功路2段8號3樓","No. 8, Section 2, Chenggong Rd, Neihu District, Taipei City, Taiwan 114",25.0601384,121.5912795,"石潭里"
"125",12867554,"亞煜國際開發有限公司","臺北市中山區中山北路3段36巷14弄13號3樓","No. 13, Alley 14, Lane 36, Section 3, Zhongshan N Rd, Zhongshan District, Taipei City, Taiwan 104",25.0649768,121.5217365,"集英里"
"126",12867560,"全佳眼鏡有限公司","臺北市士林區文林路１３８號１樓","No. 138, Wenlin Rd, Shilin District, Taipei City, Taiwan 111",25.088705,121.5266152,"仁勇里"
"127",12871157,"台佶殯葬服務有限公司","臺北市中山區中原街36號1樓","No. 36, Zhongyuan St, Zhongshan District, Taipei City, Taiwan 104",25.0573426,121.5287686,"中原里"
"128",12872156,"福爾摩沙影像有限公司","臺北市大安區建國南路2段73號","No. 73, Section 2, Jianguo S Rd, Da’an District, Taipei City, Taiwan 106",25.0311106,121.5381862,"龍圖里"
"129",12875837,"御堂貿易有限公司","臺北市大安區復興南路1段352號3樓之3","No. 352, Section 1, Fuxing S Rd, Da’an District, Taipei City, Taiwan 106",25.0356507,121.5435307,"和安里"
"130",12876012,"谷得興業有限公司","臺北市信義區仁愛路4段452巷6號2樓","No. 6, Lane 452, Section 4, Ren'ai Rd, Xinyi District, Taipei City, Taiwan 110",25.0368394,121.5591786,"正和里"
"131",12877390,"龍茶事業有限公司","臺北市士林區前港街82巷3號1樓","No. 3, Lane 82, Qiangang St, Shilin District, Taipei City, Taiwan 111",25.0846495,121.5199105,"百齡里"
"132",12877928,"啟正視光學眼鏡有限公司","臺北市南港區研究院路１段６３號１樓","No. 63, Section 1, Yanjiuyuan Rd, Nangang District, Taipei City, Taiwan 115",25.0529653,121.6165007,"新富里"
"133",12880022,"萬瑞禮儀有限公司","臺北市中山區民權東路２段１３５巷３０弄２號１樓",NA,NA,NA,NA
"134",12933007,"神龍藝術拍賣股份有限公司","臺北市松山區南京東路4段164號10樓之3","No. 164, Section 4, Nanjing E Rd, Songshan District, Taipei City, Taiwan 105",25.051283,121.556704,"復勢里"
"135",12933766,"誌軍智慧系統股份有限公司","臺北市中山區民生東路1段43號4樓","No. 43, Section 1, Minsheng E Rd, Zhongshan District, Taipei City, Taiwan 104",25.0582106,121.5259519,"聚盛里"
"136",12937539,"摩天科技股份有限公司","臺北市南港區三重路１９之２號６樓之１","No. 19-2, Sanchong Rd, Nangang District, Taipei City, Taiwan 115",25.0563507,121.6138444,"三重里"
"137",12939728,"良日顧問有限公司","臺北市中山區松江路184巷26弄16號4樓","No. 16, Alley 26, Lane 184, Songjiang Rd, Zhongshan District, Taipei City, Taiwan 104",25.056594,121.530487,"中吉里"
"138",12940106,"晟晁物業管理顧問有限公司","臺北市中正區忠孝東路1段138號5樓","No. 138, Section 1, Zhongxiao E Rd, Zhongzheng District, Taipei City, Taiwan 100",25.0441054,121.5256153,"幸福里"
"139",12941436,"欣益德有限公司","臺北市中山區民權東路2段131號1樓","No. 131, Section 2, Minquan E Rd, Zhongshan District, Taipei City, Taiwan 104",25.062671,121.5347989,"行政里"
"140",12941560,"星辰人力仲介股份有限公司","臺北市中正區忠孝西路１段４１號６樓之１","No. 41, Section 1, Zhongxiao W Rd, Zhongzheng District, Taipei City, Taiwan 100",25.046302,121.518464,"黎明里"
"141",12941870,"廣豐祭祀用品有限公司","臺北市大安區辛亥路3段157巷24弄23號1樓","No. 23, Alley 24, Lane 157, Section 3, Xinhai Rd, Da’an District, Taipei City, Taiwan 106",25.0172702,121.5503315,"黎元里"
"142",12943574,"崴勝開發有限公司","臺北市中山區民生東路2段115巷4號5樓","No. 4, Lane 115, Section 2, Minsheng E Rd, Zhongshan District, Taipei City, Taiwan 104",25.0583969,121.5314459,"中庄里"
"143",12944834,"百福山興業股份有限公司","臺北市中山區民權東路2段135巷19號1樓",NA,NA,NA,NA
"144",12945854,"華興文創事業有限公司","臺北市大安區信義路4段265巷40號2樓","No. 40, Lane 265, Section 4, Xinyi Rd, Da’an District, Taipei City, Taiwan 106",25.034986,121.555459,"光信里"
"145",12946262,"台灣康貝股份有限公司","臺北市內湖區內湖路1段360巷6號6樓","No. 6, Lane 360, Section 1, Neihu Rd, Neihu District, Taipei City, Taiwan 114",25.0809522,121.5703519,"西湖里"
"146",12946410,"明宸企業有限公司","臺北市士林區文林路68號1樓","No. 68, Wenlin Rd, Shilin District, Taipei City, Taiwan 111",25.0869546,121.5257997,"仁勇里"
"147",12947591,"逵睿有限公司","臺北市中山區雙城街3巷10號1樓","No. 10, Lane 3, Shuangcheng St, Zhongshan District, Taipei City, Taiwan 104",25.0632102,121.5249618,"恆安里"
"148",12950151,"鋒龍實業有限公司","臺北市士林區天母北路３２號２樓","No. 32, Tianmu N Rd, Shilin District, Taipei City, Taiwan 111",25.1200413,121.5263237,"天玉里"
"149",12954706,"億隆生命事業股份有限公司","臺北市中山區民權東路2段135巷18號1樓",NA,NA,NA,NA
"150",12955944,"哈佛視陀生物科技有限公司","臺北市大安區忠孝東路4段169號11樓之1","No. 169, Section 4, Zhongxiao E Rd, Da’an District, Taipei City, Taiwan 106",25.0415843,121.5504279,"建安里"
"151",12956090,"莉驊企業有限公司","臺北市中正區重慶南路1段63號8樓之3","No. 63, Section 1, Chongqing S Rd, Zhongzheng District, Taipei City, Taiwan 100",25.044444,121.513382,"黎明里"
"152",12956140,"寶運佛教禮儀有限公司","臺北市中山區民權東路２段１３５巷３０弄９號",NA,NA,NA,NA
"153",12959842,"稼達實業有限公司","臺北市大安區安和路２段１０２號４樓","No. 102, Section 2, Anhe Rd, Da’an District, Taipei City, Taiwan 106",25.0283156,121.5497249,"義安里"
"154",12961636,"甦活創意管理顧問股份有限公司","臺北市大安區敦化南路1段259號13樓","No. 259, Section 1, Dunhua S Rd, Da’an District, Taipei City, Taiwan 106",25.036831,121.549284,"敦安里"
"155",12962109,"協成殯葬有限公司","臺北市南港區南港路3段256巷27號","No. 27, Lane 256, Section 3, Nangang Rd, Nangang District, Taipei City, Taiwan 115",25.0527265,121.5834929,"玉成里"
"156",12962234,"家家通活動量販有限公司","臺北市信義區莊敬路325巷4號1樓","No. 4, Lane 325, Zhuangjing Rd, Xinyi District, Taipei City, Taiwan 110",25.028179,121.563963,"三張里"
"157",12962500,"紫雲國際股份有限公司","臺北市中山區敬業三路11號","No. 11, Jingye 3rd Rd, Zhongshan District, Taipei City, Taiwan 104",25.0835796,121.5556526,"Zhongshan District"
"158",12963183,"台安殯儀有限公司","臺北市中山區建國北路3段16號","No. 16, Section 3, Jianguo N Rd, Zhongshan District, Taipei City, Taiwan 104",25.0636141,121.5366764,"行政里"
"159",12964599,"懷義殯葬有限公司","臺北市文山區辛亥路４段１０１巷８５之４號","No. 85-4, Lane 101, Section 4, Xinhai Rd, Wenshan District, Taipei City, Taiwan 116",25.00659,121.559372,"興昌里"
"160",12966512,"世紀寶島眼鏡有限公司","臺北市士林區士東路６２號１樓","No. 62, Shidong Rd, Shilin District, Taipei City, Taiwan 111",25.1118834,121.5282246,"蘭雅里"
"161",12967218,"祐暉國際有限公司","臺北市中山區民權東路2段135巷20弄3號1樓",NA,NA,NA,NA
"162",12968125,"尊榮國際開發股份有限公司","臺北市士林區承德路４段１０巷５３號２樓","No. 53, Lane 10, Section 4, Chengde Rd, Shilin District, Taipei City, Taiwan 111",25.0805047,121.5196562,"明勝里"
"163",12969222,"哈利波特生活館有限公司","臺北市中山區民權東路２段１５４號６樓","No. 154, Section 2, Minquan E Rd, Zhongshan District, Taipei City, Taiwan 104",25.0622821,121.5348115,"松江里"
"164",12969573,"宙斯行銷有限公司","臺北市中正區中華路2段75巷1弄33號","No. 33, Alley 1, Lane 75, Section 2, Zhonghua Rd, Zhongzheng District, Taipei City, Taiwan 100",25.034858,121.5066838,"愛國里"
"165",12970810,"三勝國際育樂開發股份有限公司","臺北市松山區復興北路369號10樓之2","No. 369, Fuxing N Rd, Songshan District, Taipei City, Taiwan 105",25.0626001,121.5447579,"民福里"
"166",12971515,"新福寶國際股份有限公司","臺北市中山區松江路１１１號１０樓","No. 111, Songjiang Rd, Zhongshan District, Taipei City, Taiwan 104",25.0513225,121.5332576,"朱園里"
"167",12972367,"福緣禮儀股份有限公司","臺北市中山區松江路１１１號１０樓","No. 111, Songjiang Rd, Zhongshan District, Taipei City, Taiwan 104",25.0513225,121.5332576,"朱園里"
"168",12973577,"慈雲管理顧問有限公司","臺北市中山區民權東路2段133號2樓","No. 133, Section 2, Minquan E Rd, Zhongshan District, Taipei City, Taiwan 104",25.0627026,121.5348817,"行政里"
"169",12976791,"富華實業有限公司","臺北市松山區南京東路４段１８６號１３樓之６","No. 186, Section 4, Nanjing E Rd, Songshan District, Taipei City, Taiwan 105",25.0513229,121.557651,"復勢里"
"170",12977243,"山基通路科技股份有限公司","臺北市大同區承德路１段１７號１８樓","No. 17, Section 1, Chengde Rd, Datong District, Taipei City, Taiwan 103",25.0500839,121.5170461,"建明里"
"171",12978382,"太虛天數運籌有限公司","臺北市松山區南京東路３段３４６號９樓之１Ｏ","No. 346, Section 3, Nanjing E Rd, Songshan District, Taipei City, Taiwan 105",25.0515802,121.5480716,"中正里"
"172",13081244,"得聖眼鏡有限公司","臺北市中正區羅斯福路1段125號1樓","No. 125, Section 1, Roosevelt Rd, Zhongzheng District, Taipei City, Taiwan 100",25.0303525,121.5203321,"新營里"
"173",13082095,"巧比事業股份有限公司","臺北市中山區松江路67號9樓之1","No. 67, Songjiang Rd, Zhongshan District, Taipei City, Taiwan 104",25.0492489,121.5331618,"朱園里"
"174",13084087,"京宏國際事業股份有限公司","臺北市中山區民權東路２段２０４號１樓","No. 204, Section 2, Minquan E Rd, Zhongshan District, Taipei City, Taiwan 104",25.0621836,121.5364294,"松江里"
"175",13085059,"富貴道生活事業有限公司","臺北市中山區南京東路2段108號7樓之3","No. 108, Section 2, Nanjing E Rd, Zhongshan District, Taipei City, Taiwan 104",25.0517765,121.53209,"興亞里"
"176",13085234,"亞太旅館管理顧問有限公司","臺北市中山區遼寧街112號5樓之4","No. 112, Liaoning St, Zhongshan District, Taipei City, Taiwan 104",25.0525759,121.541847,"復華里"
"177",13086016,"金寶生命事業股份有限公司","臺北市中山區民權東路2段186號2樓","No. 186, Section 2, Minquan E Rd, Zhongshan District, Taipei City, Taiwan 104",25.0621793,121.535903,"松江里"
"178",13089180,"英儹實業股份有限公司","臺北市大安區仁愛路４段１０１號５樓之１","No. 101, Section 4, Ren'ai Rd, Da’an District, Taipei City, Taiwan 106",25.0387291,121.5483189,"仁愛里"
"179",13089512,"得鎰眼鏡有限公司","臺北市中山區中山北路1段57之1號1樓","No. 57-1, Section 1, Zhongshan North Road, Zhongshan District, Taipei City, Taiwan 104",25.049516,121.521743,"正得里"
"180",13089528,"尚蔚股份有限公司","臺北市中山區中山北路2段65巷2弄58之2號","No. 58, Alley 2, Lane 65, Section 2, Zhongshan N Rd, Zhongshan District, Taipei City, Taiwan 104",25.056595,121.524772,"中山里"
"181",13091475,"花園廣場股份有限公司","臺北市中山區民生東路3段15號3樓","No. 15, Section 3, Minsheng E Rd, Zhongshan District, Taipei City, Taiwan 104",25.0580736,121.5381457,"江山里"
"182",13094992,"誠心國際開發有限公司","臺北市中山區民生西路16號5樓之3","No. 16, Minsheng W Rd, Zhongshan District, Taipei City, Taiwan 104",25.0577082,121.52216,"民安里"
"183",13097180,"朝輝國際股份有限公司","臺北市內湖區潭美街587號2樓","No. 587, Tanmei St, Neihu District, Taipei City, Taiwan 114",25.0611839,121.6035154,"蘆洲里"
"184",13098110,"崴騰開發有限公司","臺北市中山區民生東路2段115巷4號5樓","No. 4, Lane 115, Section 2, Minsheng E Rd, Zhongshan District, Taipei City, Taiwan 104",25.0583969,121.5314459,"中庄里"
"185",13098202,"金龍藝品有限公司","臺北市中山區長春路90號地下1樓及地下1樓之1至之109","No. 90, Changchun Rd, Zhongshan District, Taipei City, Taiwan 104",25.0547911,121.5270531,"康樂里"
"186",13098456,"統賀新生活國際股份有限公司","臺北市松山區民生東路5段169號2樓","No. 169, Section 5, Minsheng E Rd, Songshan District, Taipei City, Taiwan 105",25.059459,121.564738,"富錦里"
"187",13102022,"大唐興業有限公司","臺北市中山區松江路27號6樓","No. 27, Songjiang Rd, Zhongshan District, Taipei City, Taiwan 104",25.0473413,121.5331999,"朱園里"
"188",13102959,"聖凱光學有限公司","臺北市大安區永康街12之6號","No. 12-6, Yongkang St, Da’an District, Taipei City, Taiwan 106",25.0313699,121.529439,"永康里"
"189",13103845,"曜榕眼鏡有限公司","臺北市松山區民生東路5段13號","No. 13, Section 5, Minsheng E Rd, Songshan District, Taipei City, Taiwan 105",25.0584467,121.5558215,"東榮里"
"190",13104268,"富維蓄股份有限公司","臺北市大同區市民大道1段209號11樓之1","No. 209, Section 1, Civic Blvd, Datong District, Taipei City, Taiwan 103",25.0487857,121.518569,"建明里"
"191",13104318,"鼎暉國際股份有限公司","臺北市內湖區新明路460巷18弄19號1樓","114, Taiwan, Taipei City, Neihu District, 新明路460巷18弄19號",25.054047,121.577835,"行善里"
"192",13105484,"慈欣國際有限公司","臺北市大同區承德路３段２００號承德路３段２００號１樓","Lane 122, Section 3, Chengde Rd & Lane 129, Section 3, Chengde Rd, Datong District, Taipei City, Taiwan 103",25.067293,121.5184559,"Datong District"
"193",13105745,"安麒人力派遣有限公司","臺北市大同區南京西路１６３之２６號","No. 163, Nanjing W Rd, Datong District, Taipei City, Taiwan 103",25.054087,121.513084,"朝陽里"
"194",13107292,"金寶成殯葬禮儀有限公司","臺北市士林區延平北路6段218號","No. 218, Section 6, Yanping N Rd, Shilin District, Taipei City, Taiwan 111",25.0894791,121.5047063,"永倫里"
"195",13107434,"大事吉生命事業股份有限公司","臺北市萬華區萬大路98號1樓","No. 98, Wanda Rd, Wanhua District, Taipei City, Taiwan 108",25.03015,121.5004259,"雙園里"
"196",13108497,"金石堂眼鏡有限公司","臺北市中正區南昌路1段63號","No. 63, Section 1, Nanchang Rd, Zhongzheng District, Taipei City, Taiwan 100",25.0311149,121.517455,"龍福里"
"197",13109411,"嘉盛生活科技股份有限公司","臺北市中山區松江路67號6樓之2","No. 67, Songjiang Rd, Zhongshan District, Taipei City, Taiwan 104",25.0492489,121.5331618,"朱園里"
"198",13109539,"連昇實業有限公司","臺北市信義區忠孝東路5段1之8號2樓",NA,NA,NA,NA
"199",13113317,"太芃國際企業管理股份有限公司","臺北市信義區基隆路1段155號11樓","No. 155, Section 1, Keelung Rd, Xinyi District, Taipei City, Taiwan 110",25.042178,121.565396,"興雅里"
"200",13113914,"宏生生命事業有限公司","臺北市中山區德惠街163號1樓","No. 163, Dehui St, Zhongshan District, Taipei City, Taiwan 104",25.0666481,121.5313864,"新喜里"
"201",13115498,"中國眼鏡有限公司","臺北市中正區博愛路51號1樓","No. 51, Bo'ai Rd, Zhongzheng District, Taipei City, Taiwan 100",25.044589,121.511589,"光復里"
"202",13118024,"和融有限公司","臺北市萬華區東園街8號","No. 8, Dongyuan St, Wanhua District, Taipei City, Taiwan 108",25.0277948,121.4955188,"忠德里"
"203",13118256,"佳臻國際有限公司","臺北市中山區林森北路627號4樓","No. 627, Linsen N Rd, Zhongshan District, Taipei City, Taiwan 104",25.067017,121.525894,"圓山里"
"204",13118404,"鴻銓國際有限公司","臺北市士林區中正路364號2樓","No. 364, Zhongzheng Rd, Shilin District, Taipei City, Taiwan 111",25.0943561,121.5212043,"福佳里"
"205",13127353,"典固人文股份有限公司","臺北市信義區基隆路2段189號15樓之13","No. 189, Section 2, Keelung Rd, Xinyi District, Taipei City, Taiwan 110",25.0248813,121.5534255,"黎順里"
"206",13128058,"藝念集私空間設計有限公司","臺北市松山區健康路325巷6弄21號1樓","No. 21, Alley 6, Lane 325, Jiankang Rd, Songshan District, Taipei City, Taiwan 105",25.0550891,121.5681571,"鵬程里"
"207",13129090,"皕茂有限公司","臺北市士林區天母北路87巷11號6樓","No. 11, Lane 87, Tianmu N Rd, Shilin District, Taipei City, Taiwan 111",25.1220994,121.5276934,"天玉里"
"208",13131574,"欣芳殯儀有限公司","臺北市中山區德惠街175號1樓","No. 175, Dehui St, Zhongshan District, Taipei City, Taiwan 104",25.066655,121.5319681,"新喜里"
"209",13131589,"和和生命事業有限公司","臺北市中山區民權東路2段135巷19號1樓",NA,NA,NA,NA
"210",13134734,"玖玖量販眼鏡有限公司","臺北市松山區健康路228號","No. 228, Jiankang Rd, Songshan District, Taipei City, Taiwan 105",25.0538481,121.5613275,"東光里"
"211",13135451,"元福禮儀有限公司","臺北市中山區長安東路1段52之1號4樓之1","No. 52-1, Section 1, Chang'an E Rd, Zhongshan District, Taipei City, Taiwan 104",25.0481757,121.5283009,"正守里"
"212",13136557,"永錮科技有限公司","臺北市信義區光復南路447之2號9樓之5","No. 447-2, Guangfu S Rd, Xinyi District, Taipei City, Taiwan 110",25.0351746,121.557668,"正和里"
"213",13138302,"怡克有限公司","臺北市松山區南京東路４段１３３巷７弄１５號１樓","No. 15, Alley 7, Lane 133, Section 4, Nanjing E Rd, Songshan District, Taipei City, Taiwan 105",25.0525476,121.5556801,"東勢里"
"214",13138984,"創億國際企業有限公司","臺北市大安區忠孝東路４段１６２號８樓之１","No. 162, Section 4, Zhongxiao E Rd, Da’an District, Taipei City, Taiwan 106",25.0412914,121.5502887,"建倫里"
"215",13139576,"新思網路科技有限公司","臺北市大安區忠孝東路4段64之1號1樓、60號地下之1","No. 64-1, Section 4, Zhongxiao E Rd, Da’an District, Taipei City, Taiwan 106",25.041393,121.545511,"仁愛里"
"216",13140721,"正利工商管理顧問有限公司","臺北市中山區松江路532號3樓","No. 532, Songjiang Rd, Zhongshan District, Taipei City, Taiwan 104",25.066965,121.532988,"新喜里"
"217",13141762,"大景光學眼鏡有限公司","臺北市文山區景文街123號1樓","No. 123, Jingwen St, Wenshan District, Taipei City, Taiwan 116",24.9903709,121.541221,"景行里"
"218",13159782,"展雲幸福事業股份有限公司","臺北市中山區民權東路2段135巷16號1樓",NA,NA,NA,NA
"219",13182263,"格眾國際股份有限公司","臺北市大安區基隆路２段１６６號１４樓之３","No. 166, Section 2, Keelung Rd, Da’an District, Taipei City, Taiwan 106",25.0271631,121.5554388,"法治里"
"220",14020219,"長榮電機工業股份有限公司","臺北市士林區大東路90之2號2樓","No. 90-2, Dadong Rd, Shilin District, Taipei City, Taiwan 111",25.0914932,121.5256506,"仁勇里"
"221",14072975,"綠洲高爾夫國際有限公司","臺北市中山區吉林路218巷7號1樓","No. 7, Lane 218, Jilin Rd, Zhongshan District, Taipei City, Taiwan 104",25.0590191,121.5297093,"中庄里"
"222",14086561,"三濠企業股份有限公司","臺北市大安區敦化南路2段86號3樓之1","No. 86, Section 2, Dunhua S Rd, Da’an District, Taipei City, Taiwan 106",25.028789,121.548298,"龍雲里"
"223",15128434,"全昱創意企業有限公司","臺北市大安區忠孝東路3段251巷7弄2號1樓",NA,NA,NA,NA
"224",15146812,"亨信貿易有限公司","臺北市中山區長安東路2段67號4樓","No. 67, Section 2, Chang'an E Rd, Zhongshan District, Taipei City, Taiwan 104",25.0485726,121.5339317,"朱園里"
"225",15473646,"億奇有限公司","臺北市中正區新生南路1段170巷17號2樓","No. 17, Lane 170, Section 1, Xinsheng S Rd, Zhongzheng District, Taipei City, Taiwan 100",25.0343277,121.5308541,"三愛里"
"226",15899621,"華程通信有限公司","臺北市信義區和平東路3段273號1樓","No. 273, Section 3, Heping E Rd, Xinyi District, Taipei City, Taiwan 110",25.0222793,121.5550162,"黎平里"
"227",16032555,"鋐錩工程有限公司","臺北市松山區八德路4段266號2樓","No. 266, Section 4, Bade Rd, Songshan District, Taipei City, Taiwan 105",25.0489402,121.5664498,"新聚里"
"228",16131197,"伸騰企業有限公司","臺北市中正區羅斯福路3段266之1號1樓","No. 266-1, Section 3, Roosevelt Rd, Zhongzheng District, Taipei City, Taiwan 100",25.016847,121.531817,"文盛里"
"229",16132983,"樸瑞科技股份有限公司","臺北市大安區信義路四段二九六號六樓之二","No. 296, Section 4, Xinyi Rd, Da’an District, Taipei City, Taiwan 106",25.0330166,121.5545427,"通化里"
"230",16134650,"得明有限公司","臺北市松山區民權東路3段160巷25之1號1樓","No. 25, Lane 160, Section 3, Minquan E Rd, Songshan District, Taipei City, Taiwan 105",25.0597129,121.5468546,"民有里"
"231",16140098,"奇園國際有限公司","臺北市松山區南京東路5段123巷4弄17號1樓","No. 17, Alley 4, Lane 123, Section 5, Nanjing E Rd, Songshan District, Taipei City, Taiwan 105",25.0525974,121.5616599,"東光里"
"232",16144616,"嘉晏光學股份有限公司","臺北市內湖區洲子街80號2樓、2樓之1","No. 80, Zhouzi St, Neihu District, Taipei City, Taiwan 114",25.0793413,121.5716702,"港墘里"
"233",16149984,"耐時企業有限公司","臺北市大同區延平北路2段240之1號","No. 240-1, Section 2, Yanping N Rd, Datong District, Taipei City, Taiwan 103",25.059942,121.511218,"大有里"
"234",16153620,"國度創意管理股份有限公司","臺北市中正區忠孝東路2段39巷2弄2號2樓","No. 2, Alley 2, Lane 39, Section 2, Zhongxiao E Rd, Zhongzheng District, Taipei City, Taiwan 100",25.044135,121.528045,"梅花里"
"235",16154418,"易大昌有限公司","臺北市內湖區內湖路1段625號1樓","No. 625, Section 1, Neihu Rd, Neihu District, Taipei City, Taiwan 114",25.0805938,121.5743785,"麗山里"
"236",16161683,"玉佛山禮儀有限公司","臺北市中山區民權東路2段123號1樓","No. 123, Section 2, Minquan E Rd, Zhongshan District, Taipei City, Taiwan 104",25.0626309,121.5346188,"行政里"
"237",16173787,"興環實業有限公司","臺北市信義區林口街38巷36號1樓","No. 36, Lane 38, Linkou St, Xinyi District, Taipei City, Taiwan 110",25.038265,121.580738,"大仁里"
"238",16175342,"得悅眼鏡有限公司","臺北市信義區忠孝東路5段491號1樓","No. 491, Section 5, Zhongxiao E Rd, Xinyi District, Taipei City, Taiwan 110",25.0412198,121.57828,"永春里"
"239",16178713,"圓得實業開發有限公司","臺北市松山區民族東路743號1樓","No. 743, Minzu E Rd, Songshan District, Taipei City, Taiwan 105",25.0627639,121.5494043,"民福里"
"240",16240195,"侑呈資訊有限公司","臺北市南港區玉成街66-7號2樓","No. 66-7, Yucheng St, Nangang District, Taipei City, Taiwan 115",25.0469119,121.581781,"合成里"
"241",16281771,"元凡實業有限公司","臺北市大同區南京西路36號10樓","No. 36, Nanjing W Rd, Datong District, Taipei City, Taiwan 103",25.0526618,121.5196088,"建泰里"
"242",16283145,"貝登堡國際開發有限公司","臺北市中山區復興北路346號1樓","No. 346, Fuxing N Rd, Zhongshan District, Taipei City, Taiwan 104",25.0598349,121.543924,"江山里"
"243",16284496,"福臨葬儀服務有限公司","臺北市大安區臥龍街190號1樓","No. 190, Wolong St, Da’an District, Taipei City, Taiwan 106",25.0180818,121.5511125,"黎元里"
"244",16290011,"頡客有限公司","臺北市信義區基隆路２段１８９號５樓之１","No. 189, Section 2, Keelung Rd, Xinyi District, Taipei City, Taiwan 110",25.0248813,121.5534255,"黎順里"
"245",16297513,"楊子有限公司","臺北市北投區中正街17巷9號1樓","No. 9, Lane 17, Zhongzheng St, Beitou District, Taipei City, Taiwan 112",25.1317159,121.500622,"中央里"
"246",16298652,"唭哩岸實業有限公司","臺北市士林區福國路69號1樓","No. 69, Fuguo Rd, Shilin District, Taipei City, Taiwan 111",25.1017229,121.5232746,"德行里"
"247",16302190,"百鴻國際興業有限公司","臺北市中正區忠孝東路2段64巷4號","No. 4, Lane 64, Section 2, Zhongxiao E Rd, Zhongzheng District, Taipei City, Taiwan 100",25.0430285,121.5285984,"幸福里"
"248",16304492,"高嵩鐵路顧問工程有限公司","臺北市信義區永吉路278巷57弄24之3號","No. 24, Alley 57, Lane 278, Yongji Rd, Xinyi District, Taipei City, Taiwan 110",25.0432536,121.5748607,"長春里"
"249",16311043,"慶立建築物公共安全檢查有限公司","臺北市中正區紹興北街8號5樓","No. 8, Shaoxing N St, Zhongzheng District, Taipei City, Taiwan 100",25.0453056,121.5252352,"梅花里"
"250",16311352,"展雲幸福禮儀股份有限公司","臺北市中山區民權東路2段135巷16號","No. 16, Lane 135, Section 2, Minquan E Rd, Zhongshan District, Taipei City, Taiwan 104",25.0636457,121.534923,"行政里"
"251",16316125,"沒有關係文化事業有限公司","臺北市中正區師大路202號1樓","No. 202, Shida Rd, Zhongzheng District, Taipei City, Taiwan 100",25.0208761,121.5235349,"河堤里"
"252",16324589,"行善事業股份有限公司","臺北市北投區承德路7段390號5樓","No. 390, Section 7, Chengde Rd, Beitou District, Taipei City, Taiwan 112",25.119643,121.501807,"八仙里"
"253",16417849,"禾畯有限公司","臺北市中山區長春路172號7樓","No. 172, Changchun Rd, Zhongshan District, Taipei City, Taiwan 104",25.05458,121.533823,"中央里"
"254",16495582,"太毅國際顧問股份有限公司","臺北市內湖區文湖街12號3樓之2","No. 12, Wenhu St, Neihu District, Taipei City, Taiwan 114",25.0856945,121.5609076,"西康里"
"255",16581313,"宏遠光學眼鏡有限公司","臺北市北投區中正街85號","No. 85, Zhongzheng St, Beitou District, Taipei City, Taiwan 112",25.1324753,121.4996609,"中央里"
"256",16584016,"寶吉祥有限公司","臺北市信義區松仁路89號14樓之2及之3","No. 89, Songren Rd, Xinyi District, Taipei City, Taiwan 110",25.0369682,121.5687031,"安康里"
"257",16585438,"雅晶光學眼鏡有限公司","臺北市士林區德行東路199號","No. 199, Dexing E Rd, Shilin District, Taipei City, Taiwan 111",25.109098,121.532009,"三玉里"
"258",16585556,"宥勝國際有限公司","臺北市南港區研究院路2段14號3樓","No. 14, Section 2, Academia Rd, Nangang District, Taipei City, Taiwan 115",25.0476045,121.615547,"中研里"
"259",16589547,"蓮華往生事業股份有限公司","臺北市中山區民生東路2段55號","No. 55, Section 2, Minsheng E Rd, Zhongshan District, Taipei City, Taiwan 104",25.0581376,121.5294978,"中庄里"
"260",16592276,"菩提心禮儀有限公司","臺北市中山區民權東路2段135巷30弄5號1樓",NA,NA,NA,NA
"261",16597820,"順楊實業有限公司","臺北市文山區萬寧街２７號１樓","No. 27, Wanning St, Wenshan District, Taipei City, Taiwan 116",25.003491,121.564962,"萬美里"
"262",16599622,"凹凸眼鏡有限公司","臺北市萬華區西園路2段227號","No. 227, Section 2, Xiyuan Rd, Wanhua District, Taipei City, Taiwan 108",25.026797,121.494022,"忠德里"
"263",16608782,"弘鼎國際事業有限公司","臺北市中山區松江路200號4樓之6","No. 200, Songjiang Rd, Zhongshan District, Taipei City, Taiwan 104",25.0573022,121.5328316,"中吉里"
"264",16611816,"國文興業有限公司","臺北市中山區農安街204巷15號6樓","No. 15, Lane 204, Nong'an St, Zhongshan District, Taipei City, Taiwan 104",25.0638747,121.5364302,"行政里"
"265",16612483,"慈念堂殯儀有限公司","臺北市大安區臥龍街１９５巷１４號１樓","No. 14, Lane 195, Wolong St, Da’an District, Taipei City, Taiwan 106",25.0186594,121.5529224,"黎元里"
"266",16614200,"格旭生命事業有限公司","臺北市文山區景後街95號5樓之6","No. 95, Jinghou St, Wenshan District, Taipei City, Taiwan 116",24.991914,121.542926,"景行里"
"267",16615475,"益鴻企業有限公司","臺北市中山區民權東路2段135巷19號1樓",NA,NA,NA,NA
"268",16615720,"大有可為文創股份有限公司","臺北市中正區忠孝東路1段9號10樓","No. 9, Section 1, Zhongxiao E Rd, Zhongzheng District, Taipei City, Taiwan 100",25.0449359,121.5238285,"梅花里"
"269",16617001,"懷景殯葬有限公司","臺北市大安區和平東路３段１２１號１２樓","No. 121, Section 3, Heping E Rd, Da’an District, Taipei City, Taiwan 106",25.0244991,121.5518124,"全安里"
"270",16619958,"藍天生物科技股份有限公司","臺北市松山區三民路１０７巷９號１樓","No. 9, Lane 107, Sanmin Rd, Songshan District, Taipei City, Taiwan 105",25.0575841,121.5630418,"三民里"
"271",16620765,"太極堂企業有限公司","臺北市中山區民權東路2段134號1樓","No. 134, Section 2, Minquan E Rd, Zhongshan District, Taipei City, Taiwan 104",25.0623153,121.5328869,"新生里"
"272",16628252,"羅理士企業有限公司","臺北市士林區忠誠路1段99號3樓","No. 99, Section 1, Zhongcheng Rd, Shilin District, Taipei City, Taiwan 111",25.104785,121.528414,"名山里"
"273",16751180,"心傳管理顧問有限公司","臺北市中山區中山北路1段72號10樓之2","No. 72, Section 1, Zhongshan North Road, Zhongshan District, Taipei City, Taiwan 104",25.0487701,121.520833,"民安里"
"274",16753808,"山基電信股份有限公司","臺北市大同區承德路１段１７號１８樓","No. 17, Section 1, Chengde Rd, Datong District, Taipei City, Taiwan 103",25.0500839,121.5170461,"建明里"
"275",16753912,"興安社禮儀有限公司","臺北市大安區辛亥路3段157巷12弄30號1樓","No. 30, Alley 12, Lane 157, Section 3, Xinhai Rd, Da’an District, Taipei City, Taiwan 106",25.0167878,121.5504248,"黎元里"
"276",16757403,"大眼睛文化有限公司","臺北市中正區忠孝西路１段５０號２５樓之２４","No. 50, Section 1, Zhongxiao W Rd, Zhongzheng District, Taipei City, Taiwan 100",25.0459693,121.5158461,"黎明里"
"277",16757733,"王秋航實業有限公司","臺北市中山區松江路220號9樓之1","No. 220, Songjiang Rd, Zhongshan District, Taipei City, Taiwan 104",25.0581845,121.5328096,"中庄里"
"278",16758022,"玫瑰園國際股份有限公司","臺北市信義區光復南路495號9樓之5","No. 495, Guangfu S Rd, Xinyi District, Taipei City, Taiwan 110",25.0324176,121.5575934,"中興里"
"279",16758424,"慎大企業有限公司","臺北市中山區長春路366號4樓","No. 366, Changchun Rd, Zhongshan District, Taipei City, Taiwan 104",25.0544219,121.542579,"復華里"
"280",16760272,"茱蒂婚紗攝影事業有限公司","臺北市中山區中山北路2段160之1號","No. 160-1, Section 2, Zhongshan N Rd, Zhongshan District, Taipei City, Taiwan 104",25.0631337,121.5223256,"集英里"
"281",16760358,"善得事業股份有限公司","臺北市大安區復興南路2段237號10樓之15","No. 237, Section 2, Fuxing S Rd, Da’an District, Taipei City, Taiwan 106",25.026013,121.543826,"群賢里"
"282",16762855,"往來國際事業有限公司","臺北市中正區延平南路70號2樓之1","No. 70, Yanping S Rd, Zhongzheng District, Taipei City, Taiwan 100",25.04488,121.510298,"光復里"
"283",16765635,"武德禮儀有限公司","臺北市士林區中正路425號1樓","No. 425, Zhongzheng Rd, Shilin District, Taipei City, Taiwan 111",25.0935417,121.5206468,"福德里"
"284",16767731,"貝律銘能源管理顧問股份有限公司","臺北市大安區忠孝東路4段206之1號12樓","No. 206-1, Section 4, Zhongxiao E Rd, Da’an District, Taipei City, Taiwan 106",25.041193,121.552351,"建倫里"
"285",16768289,"聲動錄音有限公司","臺北市松山區基隆路1段38號10樓","No. 38, Section 1, Keelung Rd, Songshan District, Taipei City, Taiwan 105",25.049905,121.5694141,"新聚里"
"286",16771550,"大千聯儀有限公司","臺北市中山區民權東路2段135巷23號2樓","No. 23, Lane 135, Section 2, Minquan E Rd, Zhongshan District, Taipei City, Taiwan 104",25.0640479,121.535087,"行政里"
"287",16778189,"復巨顧問有限公司","臺北市中正區紹興北街2巷1號4樓","No. 10-1, Shaoxing N St, Zhongzheng District, Taipei City, Taiwan 100",25.0455747,121.525349,"梅花里"
"288",16780501,"順巨顧問有限公司","臺北市中正區紹興北街2巷1號4樓","No. 10-1, Shaoxing N St, Zhongzheng District, Taipei City, Taiwan 100",25.0455747,121.525349,"梅花里"
"289",16780805,"巨如智庫顧問有限公司","臺北市中正區紹興北街2巷1號4樓","No. 10-1, Shaoxing N St, Zhongzheng District, Taipei City, Taiwan 100",25.0455747,121.525349,"梅花里"
"290",16783253,"陪伴者事業有限公司","臺北市大安區信義路4段265巷21弄26號1樓","No. 26, Alley 21, Lane 265, Section 4, Xinyi Rd, Da’an District, Taipei City, Taiwan 106",25.0336017,121.5558259,"敦煌里"
"291",16783373,"<U+945B>臻往生殯儀有限公司","臺北市大安區辛亥路3段157巷24弄22號","No. 22, Alley 24, Lane 157, Section 3, Xinhai Rd, Da’an District, Taipei City, Taiwan 106",25.0174229,121.5501536,"黎元里"
"292",16783845,"迦利利有限公司","臺北市中正區杭州南路２段４８號１樓","No. 48, Section 2, Hangzhou S Rd, Zhongzheng District, Taipei City, Taiwan 100",25.0307928,121.5221364,"新營里"
"293",16784268,"川奇開發有限公司","臺北市中山區民生東路１段５８號７樓","No. 58, Section 1, Minsheng E Rd, Zhongshan District, Taipei City, Taiwan 104",25.0579964,121.5249363,"中山里"
"294",16786168,"才訊有限公司","臺北市松山區健康路325巷24弄3號","No. 3, Alley 24, Lane 325, Jiankang Rd, Songshan District, Taipei City, Taiwan 105",25.0566475,121.5675201,"鵬程里"
"295",16786717,"鉅豐殯儀服務有限公司","臺北市大安區辛亥路3段157巷12弄32號","No. 32, Alley 12, Lane 157, Section 3, Xinhai Rd, Da’an District, Taipei City, Taiwan 106",25.0169487,121.550608,"黎元里"
"296",16787666,"龍易生國際開發股份有限公司","臺北市中山區民權東路2段166號1樓","No. 166, Section 2, Minquan E Rd, Zhongshan District, Taipei City, Taiwan 104",25.0621883,121.5354718,"松江里"
"297",16789361,"玖達禮儀禮品有限公司","臺北市大安區辛亥路3段157巷24弄23號1樓","No. 23, Alley 24, Lane 157, Section 3, Xinhai Rd, Da’an District, Taipei City, Taiwan 106",25.0172702,121.5503315,"黎元里"
"298",16794630,"永潤禮儀有限公司","臺北市中山區民權東路2段113巷1弄13號1樓",NA,NA,NA,NA
"299",16830827,"歌林開發股份有限公司","臺北市中正區重慶南路1段86號7樓","No. 86, Section 1, Chongqing S Rd, Zhongzheng District, Taipei City, Taiwan 100",25.043099,121.512984,"光復里"
"300",16844147,"海渡實業股份有限公司","臺北市中山區(南)撫順街三之四號一樓","No. 34, Fushun St, Zhongshan District, Taipei City, Taiwan 104",25.0634715,121.519868,"集英里"
"301",16855798,"展樂實業有限公司","臺北市大安區潮州街98巷2號1樓","No. 23-2, Lane 98, Chaozhou St, Da’an District, Taipei City, Taiwan 106",25.0282979,121.5253938,"錦華里"
"302",16865395,"葛瑞特音樂經紀有限公司","臺北市松山區長春路442號6樓之5","No. 442, Changchun Rd, Songshan District, Taipei City, Taiwan 105",25.0544259,121.545196,"中正里"
"303",16923439,"雅慶實業有限公司","臺北市中山區南京西路5之1號9樓之3","No. 5-1, Nanjing W Rd, Zhongshan District, Taipei City, Taiwan 104",25.0526354,121.5213719,"民安里"
"304",16933886,"健爾美事業股份有限公司","臺北市中山區松江路485號6樓","No. 485, Songjiang Rd, Zhongshan District, Taipei City, Taiwan 104",25.0671449,121.5335047,"行政里"
"305",20753415,"勤強企業股份有限公司","臺北市信義區虎林街108巷152號1樓","No. 152, Lane 108, Hulin St, Xinyi District, Taipei City, Taiwan 110",25.042532,121.5737082,"長春里"
"306",20807904,"伯馬企業有限公司","臺北市大安區忠孝東路4段322號3樓之2","No. 322, Section 4, Zhongxiao E Rd, Da’an District, Taipei City, Taiwan 106",25.0412797,121.5569969,"正聲里"
"307",20827401,"偉欽有限公司","臺北市南港區興華路85之1號4樓","No. 85-1, Xinghua Rd, Nangang District, Taipei City, Taiwan 115",25.0556237,121.606181,"南港里"
"308",20834803,"巢鴨實業有限公司","臺北市松山區民生東路4段75巷6號","No. 6, Lane 75, Section 4, Minsheng E Rd, Songshan District, Taipei City, Taiwan 105",25.058591,121.551357,"精忠里"
"309",20913264,"誼昌文具印刷有限公司","臺北市松山區南京東路5段143號1樓","No. 143, Section 5, Nanjing E Rd, Songshan District, Taipei City, Taiwan 105",25.0516945,121.5617549,"東光里"
"310",20977652,"嘉怡股份有限公司","臺北市大安區信義路4段6號14樓之11","No. 6, Section 4, Xinyi Rd, Da’an District, Taipei City, Taiwan 106",25.0331622,121.5441842,"住安里"
"311",20987589,"拓遠股份有限公司","臺北市大安區忠孝東路4段107號9樓","No. 107, Section 4, Zhongxiao E Rd, Da’an District, Taipei City, Taiwan 106",25.0417523,121.5483089,"光武里"
"312",22040580,"冠群儀器有限公司","臺北市大安區羅斯福路3段75號5樓","No. 75, Section 3, Roosevelt Rd, Da’an District, Taipei City, Taiwan 106",25.0228029,121.526123,"古莊里"
"313",22042074,"竹風多媒體印刷品實業有限公司","臺北市萬華區長泰街316巷4號4樓","No. 4, Lane 316, Zhangtai St, Wanhua District, Taipei City, Taiwan 108",25.021083,121.492739,"銘德里"
"314",22047459,"麗明眼鏡有限公司","臺北市大安區敦化南路1段233巷64號1樓","No. 64, Lane 233, Section 1, Dunhua S Rd, Da’an District, Taipei City, Taiwan 106",25.0403006,121.5525068,"建倫里"
"315",22052635,"東興開發實業有限公司","臺北市大同區民族西路238號1樓","No. 238, Minzu W Rd, Datong District, Taipei City, Taiwan 103",25.0685065,121.5126717,"國慶里"
"316",22153325,"陽光有限公司","臺北市萬華區西園路2段372巷3弄38號1樓",NA,NA,NA,NA
"317",22265497,"皇家可口股份有限公司","臺北市中正區懷寧街64號7樓","No. 64, Huaining St, Zhongzheng District, Taipei City, Taiwan 100",25.043905,121.514021,"黎明里"
"318",22339821,"新光綜合企業股份有限公司","臺北市中山區新生北路２段６０巷２號８樓之４","No. 2, Lane 60, Section 2, Xinsheng N Rd, Zhongshan District, Taipei City, Taiwan 104",25.0555496,121.5271957,"中山里"
"319",22345387,"祥美食品股份有限公司","臺北市大安區信義路2段88號5樓","No. 88, Section 2, Xinyi Rd, Da’an District, Taipei City, Taiwan 106",25.0339401,121.5267933,"光明里"
"320",22365003,"弘道實業有限公司","臺北市中山區德惠街173號5樓","No. 173, Dehui St, Zhongshan District, Taipei City, Taiwan 104",25.066646,121.5319108,"新喜里"
"321",22368542,"德元禮儀有限公司","臺北市文山區辛亥路4段130巷3號","No. 3, Lane 130, Section 4, Xinhai Rd, Wenshan District, Taipei City, Taiwan 116",25.0048315,121.5566345,"興泰里"
"322",22415496,"龍巖股份有限公司","臺北市中山區民權東路2段166號1樓","No. 166, Section 2, Minquan E Rd, Zhongshan District, Taipei City, Taiwan 104",25.0621883,121.5354718,"松江里"
"323",22433425,"智品實業有限公司","臺北市南港區興南街11號3樓","No. 11, Xingnan St, Nangang District, Taipei City, Taiwan 115",25.0566044,121.6027753,"東新里"
"324",22437581,"極祥殯儀用品有限公司","臺北市大安區富陽街99號1樓","No. 99, Fuyang St, Da’an District, Taipei City, Taiwan 106",25.0199034,121.5567175,"黎和里"
"325",22445652,"正宜興業股份有限公司","臺北市內湖區南京東路6段346號9樓之2","No. 346, Section 6, Nanjing E Rd, Neihu District, Taipei City, Taiwan 114",25.0584953,121.5851009,"石潭里"
"326",22448715,"福山企管顧問有限公司","臺北市大安區臥龍街188巷7號1樓","No. 7, Lane 188, Wolong St, Da’an District, Taipei City, Taiwan 106",25.0178283,121.5507399,"黎元里"
"327",22608727,"神采眼鏡有限公司","臺北市大安區新生南路3段58號1樓","No. 58, Section 3, Xinsheng S Rd, Da’an District, Taipei City, Taiwan 106",25.0203722,121.5338393,"大學里"
"328",22609330,"日勝文具印刷有限公司","臺北市中山區天祥路33巷9號1樓","No. 9, Lane 33, Tianxiang Rd, Zhongshan District, Taipei City, Taiwan 104",25.0614394,121.5214491,"集英里"
"329",22614360,"敦化超級市場實業股份有限公司","臺北市松山區民生東路3段130巷9號4樓","No. 9, Lane 130, Section 3, Minsheng E Rd, Songshan District, Taipei City, Taiwan 105",25.056327,121.546388,"松基里"
"330",22618957,"恩泰葬儀有限公司","臺北市中山區建國北路3段24號2樓","No. 24, Section 3, Jianguo N Rd, Zhongshan District, Taipei City, Taiwan 104",25.0638781,121.5366769,"行政里"
"331",22638736,"聯網國際資訊股份有限公司","臺北市信義區基隆路1段159號7樓","No. 159, Section 1, Keelung Rd, Xinyi District, Taipei City, Taiwan 110",25.042004,121.565264,"興雅里"
"332",22652119,"台大光學隱形眼鏡有限公司","臺北市中正區汀州路3段187號","No. 187, Section 3, Tingzhou Rd, Zhongzheng District, Taipei City, Taiwan 100",25.0146903,121.5330475,"水源里"
"333",22658401,"凱<U+4E98>股份有限公司","臺北市大安區忠孝東路4段166號5樓之1","No. 166, Section 4, Zhongxiao E Rd, Da’an District, Taipei City, Taiwan 106",25.0412922,121.5505679,"建倫里"
"334",22662550,"家福股份有限公司","臺北市南港區南港路2段20巷5號地下1樓",NA,NA,NA,NA
"335",22676914,"飛寶動能股份有限公司","臺北市北投區大業路166號12樓","No. 166, Daye Rd, Beitou District, Taipei City, Taiwan 112",25.1251325,121.499086,"八仙里"
"336",22701701,"聯合殯儀有限公司","臺北市中山區吉林路２９９巷１１號１樓","No. 11, Lane 299, Jilin Rd, Zhongshan District, Taipei City, Taiwan 104",25.0631882,121.5309323,"新福里"
"337",22721045,"富甲鑫國際開發高科技股份有限公司","臺北市中山區松江路158號3樓之2","No. 158, Songjiang Rd, Zhongshan District, Taipei City, Taiwan 104",25.0549429,121.5328221,"中吉里"
"338",22834569,"達利國際藝術有限公司","臺北市中山區中山北路2段39巷6號10樓","No. 6, Lane 39, Section 2, Zhongshan N Rd, Zhongshan District, Taipei City, Taiwan 104",25.053857,121.5234209,"康樂里"
"339",22853565,"來來超商股份有限公司","臺北市信義區松德路131號地下1樓","No. 131, Songde Rd, Xinyi District, Taipei City, Taiwan 110",25.0374068,121.5751656,"國業里"
"340",22853777,"福客多商店股份有限公司","臺北市中山區長安東路2段99號10樓之1","No. 99, Section 2, Chang'an E Rd, Zhongshan District, Taipei City, Taiwan 104",25.0485691,121.5349219,"朱園里"
"341",22863000,"前衛眼鏡有限公司","臺北市中山區南京西路8號地下樓","Lane 23, Nanjing W Rd, Zhongshan District, Taipei City, Taiwan 104",25.0539711,121.5205941,"Zhongshan District"
"342",22874724,"慈恩園寶塔諴業股份有限公司","臺北市信義區和平東路3段631巷49號","No. 49, Lane 631, Section 3, Heping E Rd, Xinyi District, Taipei City, Taiwan 110",25.012417,121.56907,"黎安里"
"343",22891478,"甫昆企業有限公司","臺北市中正區羅斯福路3段100之64號1樓","No. 100-64, Section 3, Roosevelt Rd, Zhongzheng District, Taipei City, Taiwan 100",25.021214,121.527194,"頂東里"
"344",22895397,"龍泰美妍生技有限公司","臺北市內湖區石潭路27號5樓","No. 27, Shitan Rd, Neihu District, Taipei City, Taiwan 114",25.0629474,121.5857826,"石潭里"
"345",23042679,"世界殯儀服務有限公司","臺北市大安區臥龍街１９２號１樓","No. 192, Wolong St, Da’an District, Taipei City, Taiwan 106",25.0180555,121.5511558,"黎元里"
"346",23054386,"邁思設計顧問有限公司","臺北市中山區松江路63巷8號5樓","No. 8, Lane 63, Songjiang Rd, Zhongshan District, Taipei City, Taiwan 104",25.0489072,121.5340245,"朱園里"
"347",23060248,"全家便利商店股份有限公司","臺北市中山區中山北路2段61號7樓","No. 61, Section 2, Zhongshan N Rd, Zhongshan District, Taipei City, Taiwan 104",25.05615,121.522996,"中山里"
"348",23120040,"力榮影視器材有限公司","臺北市中正區牯嶺街141號1樓","No. 141, Guling St, Zhongzheng District, Taipei City, Taiwan 100",25.0230226,121.519169,"網溪里"
"349",23155531,"誠品股份有限公司","臺北市信義區松德路196號B1、B1-1至B1-6","No. 196, Songde Rd, Xinyi District, Taipei City, Taiwan 110",25.034946,121.574281,"安康里"
"350",23157242,"艾升有限公司","臺北市文山區羅斯福路6段83號4樓","No. 83, Section 6, Roosevelt Rd, Wenshan District, Taipei City, Taiwan 116",24.9986359,121.5405918,"萬有里"
"351",23167157,"台灣玩具反斗城貿易股份有限公司","臺北市中山區新生北路2段28巷1號",NA,NA,NA,NA
"352",23167305,"慧德興業股份有限公司","臺北市信義區基隆路2段51號8樓之9","No. 51, Section 2, Keelung Rd, Xinyi District, Taipei City, Taiwan 110",25.0309403,121.5585445,"景聯里"
"353",23286273,"吉歐工程顧問有限公司","臺北市中山區林森北路100號12樓之4","No. 100, Linsen N Rd, Zhongshan District, Taipei City, Taiwan 104",25.0504932,121.5247181,"正得里"
"354",23292795,"保銓計程車客運服務事業有限公司","臺北市士林區葫蘆街110號","No. 110, Hulu St, Shilin District, Taipei City, Taiwan 111",25.082573,121.508183,"富光里"
"355",23316591,"高宇興業有限公司","臺北市文山區忠順街2段90巷28號地下1樓","Lane 90, Section 2, Zhongshun St, Wenshan District, Taipei City, Taiwan 116",24.9840472,121.5648038,"Wenshan District"
"356",23325439,"明朝國際製作有限公司","臺北市文山區萬寧街223號1樓","No. 223, Wanning St, Wenshan District, Taipei City, Taiwan 116",25.004815,121.567509,"萬美里"
"357",23443941,"百生興業有限公司","臺北市大同區延平北路2段61巷7號1樓","No. 7, Lane 61, Section 2, Yanping N Rd, Datong District, Taipei City, Taiwan 103",25.0555436,121.512017,"朝陽里"
"358",23447756,"台興企管顧問有限公司","臺北市中正區忠孝東路1段152號10樓之6","No. 152, Section 1, Zhongxiao E Rd, Zhongzheng District, Taipei City, Taiwan 100",25.043997,121.5258103,"幸福里"
"359",23451505,"國源汽車股份有限公司","臺北市士林區天母東路69巷12弄5號2樓","No. 5, Alley 12, Lane 69, Tianmu E Rd, Shilin District, Taipei City, Taiwan 111",25.1193599,121.5345225,"天和里"
"360",23457472,"茂園有限公司","臺北市中山區民權東路2段133號2樓","No. 133, Section 2, Minquan E Rd, Zhongshan District, Taipei City, Taiwan 104",25.0627026,121.5348817,"行政里"
"361",23587593,"瑋氏傳播事業有限公司","臺北市中正區青島東路4之7號1樓","No. 4-7, Qingdao E Rd, Zhongzheng District, Taipei City, Taiwan 100",25.0438054,121.5217991,"幸福里"
"362",23598120,"蓮風企業有限公司","臺北市大安區辛亥路3段157巷22弄3號1樓","No. 3, Alley 22, Lane 157, Section 3, Xinhai Rd, Da’an District, Taipei City, Taiwan 106",25.0178057,121.5500512,"黎元里"
"363",23605157,"誠信洗染材料有限公司","臺北市內湖區內湖路1段629巷27弄8號1樓","No. 8, Alley 27, Lane 629, Section 1, Neihu Rd, Neihu District, Taipei City, Taiwan 114",25.0808065,121.5751082,"港都里"
"364",23625908,"龍榮實業有限公司","臺北市大同區重慶北路3段209號2樓","No. 209, Section 3, Chongqing N Rd, Datong District, Taipei City, Taiwan 103",25.0700789,121.5138682,"至聖里"
"365",23723915,"東龍車業有限公司","臺北市萬華區東園街133號1樓","No. 133, Dongyuan St, Wanhua District, Taipei City, Taiwan 108",25.0249008,121.4970655,"全德里"
"366",23724652,"力上西服股份有限公司","臺北市信義區逸仙路50巷2號1樓","No. 2, Lane 50, Yixian Rd, Xinyi District, Taipei City, Taiwan 110",25.0404989,121.561965,"興隆里"
"367",23742856,"吉杏展業股份有限公司","臺北市大安區延吉街239號3樓","No. 239, Yanji St, Da’an District, Taipei City, Taiwan 106",25.0362962,121.5557187,"光信里"
"368",23827215,"福座開發股份有限公司","臺北市中山區建國北路2段33號15樓","No. 33, Section 2, Jianguo N Rd, Zhongshan District, Taipei City, Taiwan 104",25.0550136,121.5373028,"朱馥里"
"369",23886760,"崇贏實業股份有限公司","臺北市北投區尊賢街218巷42號1樓","No. 42, Lane 218, Zunxian St, Beitou District, Taipei City, Taiwan 112",25.1163984,121.5090368,"尊賢里"
"370",23908390,"佳峟國際股份有限公司","臺北市中山區建國北路2段129號3樓","No. 129, Section 2, Jianguo N Rd, Zhongshan District, Taipei City, Taiwan 104",25.060108,121.537589,"江山里"
"371",23928781,"台灣崇廣股份有限公司","臺北市信義區光復南路495號9樓之5","No. 495, Guangfu S Rd, Xinyi District, Taipei City, Taiwan 110",25.0324176,121.5575934,"中興里"
"372",23930512,"台灣巴斯夫股份有限公司","臺北市中山區松江路87號16樓","No. 87, Songjiang Rd, Zhongshan District, Taipei City, Taiwan 104",25.050276,121.533304,"朱園里"
"373",23931982,"新固科技股份有限公司","臺北市信義區基隆路２段２０１號１２樓","No. 201, Section 2, Keelung Rd, Xinyi District, Taipei City, Taiwan 110",25.0246792,121.5530761,"黎順里"
"374",23948273,"磊晶營造股份有限公司","臺北市中山區吉林路393巷7號1樓","No. 7, Lane 393, Jilin Rd, Zhongshan District, Taipei City, Taiwan 104",25.0657511,121.5308425,"新喜里"
"375",24212004,"香臣國際有限公司","臺北市中正區濟南路2段3號2樓之2","No. 3, Section 2, Jinan Rd, Zhongzheng District, Taipei City, Taiwan 100",25.0415863,121.52656,"幸福里"
"376",24234844,"世茂資產管理有限公司","臺北市內湖區南京東路6段461號6樓之3","No. 461, Section 6, Nanjing E Rd, Neihu District, Taipei City, Taiwan 114",25.0609489,121.5875008,"石潭里"
"377",24250463,"耀華國際資源整合有限公司","臺北市信義區松智路1號11樓","110, Taiwan, Taipei City, Xinyi District, Songzhi Rd, 1號華新麗華花旗銀行大樓 Walsin(Citi Bank)",25.0386505,121.5661468,"Songzhi Road"
"378",24257114,"瑞麟國際實業有限公司","臺北市文山區景福街133巷38號","No. 38, Lane 133, Jingfu St, Wenshan District, Taipei City, Taiwan 116",24.995469,121.537132,"景慶里"
"379",24259302,"好康興業有限公司","臺北市北投區中央北路2段95巷6號(1樓)","No. 6, Lane 95, Section 2, Zhongyang N Rd, Beitou District, Taipei City, Taiwan 112",25.1365385,121.4950334,"豐年里"
"380",24282541,"樂學堂股份有限公司","臺北市內湖區內湖路1段516號6樓","No. 516, Section 1, Neihu Rd, Neihu District, Taipei City, Taiwan 114",25.0802201,121.5740763,"港墘里"
"381",24289426,"傑合室內裝修設計工程有限公司","臺北市北投區榮華二路19巷7號4樓","No. 7, Lane 19, Ronghua 2nd Rd, Beitou District, Taipei City, Taiwan 112",25.1130068,121.5234856,"榮華里"
"382",24298229,"壹時代企業有限公司","臺北市中山區民生西路66巷25弄3號","No. 3, Alley 25, Lane 66, Minsheng W Rd, Zhongshan District, Taipei City, Taiwan 104",25.0565211,121.5208979,"民安里"
"383",24298240,"亞諾全球企業有限公司","臺北市大同區迪化街1段72巷11之1號","No. 11, Lane 72, Section 1, Dihua St, Datong District, Taipei City, Taiwan 103",25.0556449,121.509556,"永樂里"
"384",24299206,"博觀生活有限公司","臺北市文山區育英街30號1樓","No. 30, Yuying St, Wenshan District, Taipei City, Taiwan 116",24.991588,121.538364,"景美里"
"385",24301842,"承漾有限公司","臺北市內湖區金龍路137號","No. 137, Jinlong Rd, Neihu District, Taipei City, Taiwan 114",25.0860736,121.5900976,"金龍里"
"386",24302878,"菂碩國際有限公司","臺北市中山區敬業三路162巷56號1樓","No. 56, Lane 162, Jingye 3rd Rd, Zhongshan District, Taipei City, Taiwan 104",25.07807,121.55847,"金泰里"
"387",24303010,"全教殯儀實業有限公司","臺北市大安區辛亥路3段284巷7號","No. 7, Lane 284, Section 3, Xinhai Rd, Da’an District, Taipei City, Taiwan 106",25.014594,121.551814,"學府里"
"388",24303052,"喜誠整合行銷股份有限公司","臺北市大安區復興南路1段342號2樓之2","No. 342, Section 1, Fuxing S Rd, Da’an District, Taipei City, Taiwan 106",25.0359628,121.5433585,"和安里"
"389",24303068,"聯邦創意有限公司","臺北市萬華區長泰街158號","No. 158, Zhangtai St, Wanhua District, Taipei City, Taiwan 108",25.0221629,121.4972621,"保德里"
"390",24303200,"采府貿易有限公司","臺北市大安區敦化南路1段161巷3號","No. 3, Lane 161, Section 1, Dunhua S Rd, Da’an District, Taipei City, Taiwan 106",25.0436032,121.5495222,"建安里"
"391",24303258,"承富光炫創造藝術有限公司","臺北市信義區松德路65號11樓之2","No. 65, Songde Rd, Xinyi District, Taipei City, Taiwan 110",25.0384449,121.576699,"國業里"
"392",24303588,"愛密拉諮詢顧問有限公司","臺北市中山區松江路289之1004號","No. 289, Songjiang Rd, Zhongshan District, Taipei City, Taiwan 104",25.0604412,121.5334376,"松江里"
"393",24304003,"誠泰財富顧問股份有限公司","臺北市中正區博愛路76號10樓","No. 76, Bo'ai Rd, Zhongzheng District, Taipei City, Taiwan 100",25.0446759,121.511328,"光復里"
"394",24304046,"均暉資訊有限公司","臺北市中正區懷寧街92-1號7樓","No. 92-1, Huaining St, Zhongzheng District, Taipei City, Taiwan 100",25.042677,121.513943,"黎明里"
"395",24304257,"碩拿進出口商有限公司","臺北市萬華區長泰街77號","No. 77, Zhangtai St, Wanhua District, Taipei City, Taiwan 108",25.0226498,121.4997006,"壽德里"
"396",24305100,"非凡指甲彩繪沙龍有限公司","臺北市中山區林森北路410之4號","No. 410, Linsen N Rd, Zhongshan District, Taipei City, Taiwan 104",25.0596579,121.5253804,"聚盛里"
"397",24305262,"凡傑李柯仕女諮詢服務有限公司","臺北市大安區忠孝東路4段222號3樓","No. 222, Section 4, Zhongxiao E Rd, Da’an District, Taipei City, Taiwan 106",25.041144,121.553401,"車層里"
"398",24305278,"九鼎國際事業有限公司","臺北市信義區松德路65號11樓之2","No. 65, Songde Rd, Xinyi District, Taipei City, Taiwan 110",25.0384449,121.576699,"國業里"
"399",24307395,"世界先進整合行銷股份有限公司","臺北市中山區松江路101號3樓","No. 101, Songjiang Rd, Zhongshan District, Taipei City, Taiwan 104",25.0511507,121.5332607,"朱園里"
"400",24309350,"乙天國際有限公司","臺北市大同區庫倫街13巷1弄21-2號3樓","No. 21-2, Alley 1, Lane 13, Kulun St, Datong District, Taipei City, Taiwan 103",25.0724421,121.5179567,"保安里"
"401",24309979,"威克斯星塢有限公司","臺北市信義區莊敬路423巷2弄17號","No. 17, Alley 2, Lane 423, Zhuangjing Rd, Xinyi District, Taipei City, Taiwan 110",25.027516,121.56735,"三張里"
"402",24310125,"福林國際禮儀有限公司","臺北市大安區臥龍街190號","No. 190, Wolong St, Da’an District, Taipei City, Taiwan 106",25.0180818,121.5511125,"黎元里"
"403",24311243,"金鋼石科技有限公司","臺北市大同區民權西路104號12樓之1","No. 104, Minquan W Rd, Datong District, Taipei City, Taiwan 103",25.0627169,121.5174323,"民權里"
"404",24312117,"善玉光學科技有限公司","臺北市大安區忠孝東路4段53之2號","No. 53-2, Section 4, Zhongxiao E Rd, Da’an District, Taipei City, Taiwan 106",25.041833,121.545436,"光武里"
"405",24312685,"奧古獨創國際整合藝術有限公司","臺北市大安區信義路4段265巷12弄3號1樓",NA,NA,NA,NA
"406",24313191,"采和影像整合行銷有限公司","臺北市南港區忠孝東路6段21號12樓之1","No. 21, Section 6, Zhongxiao E Rd, Nangang District, Taipei City, Taiwan 115",25.0468916,121.5826368,"合成里"
"407",24313690,"立天應用材料股份有限公司","臺北市信義區信義路5段7號37樓","Taipei 101, No. 7, Section 5, Xinyi Rd, Xinyi District, Taipei City, Taiwan 110",25.0339031,121.5645099,"Section 5, Xinyi Road"
"408",24313925,"宅修特工國際股份有限公司","臺北市大同區重慶北路3段278-2號9樓","No. 278-2, Section 3, Chongqing N Rd, Datong District, Taipei City, Taiwan 103",25.0726046,121.513539,"老師里"
"409",24313951,"前躍藝術股份有限公司","臺北市大安區安和路2段211號7樓","No. 211, Section 2, Anhe Rd, Da’an District, Taipei City, Taiwan 106",25.0261029,121.550246,"全安里"
"410",24314157,"錦鶴國際股份有限公司","臺北市北投區溫泉路73巷13號7樓","No. 13, Lane 73, Wenquan Rd, Beitou District, Taipei City, Taiwan 112",25.1359765,121.5065088,"長安里"
"411",24314500,"優達創意教育股份有限公司","臺北市信義區松隆路9巷16號","No. 16, Lane 9, Songlong Rd, Xinyi District, Taipei City, Taiwan 110",25.043986,121.567045,"敦厚里"
"412",24314810,"晴綺有限公司","臺北市大安區忠孝東路4段50號12樓","No. 50, Section 4, Zhongxiao E Rd, Da’an District, Taipei City, Taiwan 106",25.0414164,121.5449043,"仁愛里"
"413",24314939,"安堤斯有限公司","臺北市士林區美德街2之4號1樓","No. 2-4, Meide St, Shilin District, Taipei City, Taiwan 111",25.0939647,121.5257292,"福德里"
"414",24315971,"贈物網共享平台有限公司","臺北市南港區重陽路125巷16號2樓之1","No. 16, Lane 125, Chongyang Rd, Nangang District, Taipei City, Taiwan 115",25.0567074,121.5980389,"重陽里"
"415",24316465,"中昕眼鏡有限公司","臺北市大安區復興南路2段184號1樓","No. 184, Section 2, Fuxing S Rd, Da’an District, Taipei City, Taiwan 106",25.02728,121.5432892,"龍陣里"
"416",24317083,"台灣日泉整合行銷有限公司","臺北市大同區南京西路41號12樓之6","No. 41, Nanjing W Rd, Datong District, Taipei City, Taiwan 103",25.0529272,121.5198509,"光能里"
"417",24318626,"佳魁資訊股份有限公司","臺北市內湖區瑞光路76巷35號3樓","No. 35, Lane 76, Ruiguang Rd, Neihu District, Taipei City, Taiwan 114",25.070452,121.581143,"湖元里"
"418",24319391,"康寧健康生技有限公司","臺北市信義區忠孝東路5段1之5號2樓",NA,NA,NA,NA
"419",24320025,"台商資源國際有限公司","臺北市中山區松江路17號6樓","No. 17, Songjiang Rd, Zhongshan District, Taipei City, Taiwan 104",25.0465453,121.5331453,"朱園里"
"420",24320572,"銧健實業有限公司","臺北市中正區羅斯福路2段70號9樓之5","No. 70, Section 2, Roosevelt Rd, Zhongzheng District, Taipei City, Taiwan 100",25.0272439,121.5220343,"南福里"
"421",24320587,"尹鮑國際顧問有限公司","臺北市中正區廈門街33號3樓","No. 33, Xiamen St, Zhongzheng District, Taipei City, Taiwan 100",25.0261657,121.5178431,"螢圃里"
"422",24321093,"大璽國際顧問有限公司","臺北市中山區松江路152號11樓之11","No. 152, Songjiang Rd, Zhongshan District, Taipei City, Taiwan 104",25.0542589,121.5328528,"中吉里"
"423",24321869,"臻嫻養生館有限公司","臺北市松山區敦化北路155巷15號地下1樓","No. 15, Lane 155, Dunhua N Rd, Songshan District, Taipei City, Taiwan 105",25.054166,121.550748,"中華里"
"424",24323183,"四紅時尚有限公司","臺北市中山區中山北路2段42巷38號4樓","No. 38, Lane 42, Section 2, Zhongshan N Rd, Zhongshan District, Taipei City, Taiwan 104",25.0546159,121.52082,"民安里"
"425",24325773,"德美生股份有限公司","臺北市松山區慶城街24號4樓","No. 24, Qingcheng St, Songshan District, Taipei City, Taiwan 105",25.053684,121.545814,"中正里"
"426",24326891,"藝遊有限公司","臺北市大安區忠孝東路4段148號5樓之9","No. 148, Section 4, Zhongxiao E Rd, Da’an District, Taipei City, Taiwan 106",25.041252,121.549792,"建倫里"
"427",24326920,"可里斯曼國際美容股份有限公司","臺北市松山區南京東路4段117號2、3樓","No. 117, Section 4, Nanjing E Rd, Songshan District, Taipei City, Taiwan 105",25.0517139,121.5549462,"東勢里"
"428",24327717,"有鹿文化事業有限公司","臺北市大安區濟南路3段28號7樓","No. 28, Section 3, Jinan Rd, Da’an District, Taipei City, Taiwan 106",25.0401048,121.5350861,"民輝里"
"429",24328053,"偉拓財務諮詢有限公司","臺北市大安區仁愛路4段25-2號12樓","No. 25-2, Section 4, Ren'ai Rd, Da’an District, Taipei City, Taiwan 106",25.0382063,121.5450376,"仁愛里"
"430",24328504,"周林時尚國際有限公司","臺北市大安區大安路1段116巷9號2樓","No. 9, Lane 116, Section 1, Da'an Rd, Da’an District, Taipei City, Taiwan 106",25.039911,121.5453898,"仁愛里"
"431",24328618,"禮印大同有限公司","臺北市內湖區陽光街68巷161號2樓","No. 161, Lane 68, Yangguang St, Neihu District, Taipei City, Taiwan 114",25.0757822,121.5829591,"瑞陽里"
"432",24328949,"東森新聞雲股份有限公司","臺北市大安區復興南路1段368號8樓","No. 368, Section 1, Fuxing S Rd, Da’an District, Taipei City, Taiwan 106",25.034979,121.543303,"和安里"
"433",24329525,"大漢整合行銷股份有限公司","臺北市大同區重慶北路2段188號9樓","No. 188, Section 2, Chongqing N Rd, Datong District, Taipei City, Taiwan 103",25.0622972,121.5133576,"南芳里"
"434",24329623,"翡翠森林股份有限公司","臺北市內湖區民權東路6段180巷6號10樓之23","No. 6, Lane 180, Section 6, Minquan E Rd, Neihu District, Taipei City, Taiwan 114",25.0682013,121.5924566,"寶湖里"
"435",24330157,"自在禮儀有限公司","臺北市中山區民權東路2段135巷20弄3號1樓",NA,NA,NA,NA
"436",24330332,"中大眼鏡有限公司","臺北市大安區建國南路2段33號","No. 33, Section 2, Jianguo S Rd, Da’an District, Taipei City, Taiwan 106",25.0322862,121.538176,"龍圖里"
"437",24330537,"常苰科技有限公司","臺北市內湖區港富里港墘路59號","No. 59, Gangqian Rd, Neihu District, Taipei City, Taiwan 114",25.0813877,121.5784049,"港富里"
"438",24331206,"萊威國際設計有限公司","臺北市信義區松德路65號11樓之1","No. 65, Songde Rd, Xinyi District, Taipei City, Taiwan 110",25.0384449,121.576699,"國業里"
"439",24332021,"三一眼鏡有限公司","臺北市大安區建國南路1段276號","No. 276, Section 1, Jianguo S Rd, Da’an District, Taipei City, Taiwan 106",25.0363459,121.5372938,"民炤里"
"440",24332731,"瀚將國際行銷有限公司","臺北市中正區羅斯福路4段68號13樓之5","No. 68, Section 4, Roosevelt Rd, Zhongzheng District, Taipei City, Taiwan 100",25.014616,121.53423,"水源里"
"441",24332985,"良品計畫整合行銷股份有限公司","臺北市內湖區洲子街73號7樓","No. 73, Zhouzi St, Neihu District, Taipei City, Taiwan 114",25.0801461,121.5721471,"港墘里"
"442",24334576,"宏開整合行銷有限公司","臺北市大同區太原路115巷10號1樓","No. 10, Lane 115, Taiyuan Rd, Datong District, Taipei City, Taiwan 103",25.052529,121.516433,"建泰里"
"443",24335815,"英殷國際有限公司","臺北市中山區中山北路1段63號5樓","No. 63, Section 1, Zhongshan North Road, Zhongshan District, Taipei City, Taiwan 104",25.050033,121.5219861,"正得里"
"444",24336602,"鑫湛國際管理顧問股份有限公司","臺北市中正區忠孝東路2段35號","No. 35, Section 2, Zhongxiao E Rd, Zhongzheng District, Taipei City, Taiwan 100",25.043868,121.527995,"梅花里"
"445",24336650,"龍程生命事業有限公司","臺北市中山區民權東路2段196號","No. 196, Section 2, Minquan E Rd, Zhongshan District, Taipei City, Taiwan 104",25.0621687,121.5361605,"松江里"
"446",24336764,"金鑰匙行銷有限公司","臺北市士林區中山北路5段616號2樓","No. 616, Section 5, Zhongshan N Rd, Shilin District, Taipei City, Taiwan 111",25.0964922,121.527955,"福志里"
"447",24336981,"馥爾國際有限公司","臺北市信義區信義路4段391號9樓","No. 391, Section 4, Xinyi Rd, Xinyi District, Taipei City, Taiwan 110",25.0333995,121.5586308,"中興里"
"448",24337004,"奧蘿菈股份有限公司","臺北市北投區石牌路2段351號","No. 351, Section 2, Shipai Rd, Beitou District, Taipei City, Taiwan 112",25.1234328,121.5251648,"永和里"
"449",24337383,"八方之光整合行銷股份有限公司","臺北市中正區開封街1段37號4樓","No. 37, Section 1, Kaifeng St, Zhongzheng District, Taipei City, Taiwan 100",25.046127,121.5126571,"光復里"
"450",24337428,"日星會場佈置股份有限公司","臺北市松山區光復北路60巷5號2樓","No. 5, Lane 60, Guangfu N Rd, Songshan District, Taipei City, Taiwan 105",25.049676,121.5574625,"復勢里"
"451",24337530,"送行者生命禮儀服務有限公司","臺北市中山區建國北路3段96號3樓","No. 96, Section 3, Jianguo N Rd, Zhongshan District, Taipei City, Taiwan 104",25.066825,121.5342277,"行政里"
"452",24337671,"就是幽默有限公司","臺北市萬華區成都路55號","No. 55, Chengdu Rd, Wanhua District, Taipei City, Taiwan 108",25.042769,121.506273,"西門里"
"453",24338432,"找樂子有限公司","臺北市中山區中山北路1段53巷12號3樓之4","No. 12, Lane 53, Section 1, Zhongshan N Rd, Zhongshan District, Taipei City, Taiwan 104",25.0491284,121.5222987,"正得里"
"454",24339782,"巧易利企業有限公司","臺北市松山區八德路4段256號1樓","No. 256, Section 4, Bade Rd, Songshan District, Taipei City, Taiwan 105",25.0489146,121.5661698,"新聚里"
"455",24341295,"中六眼鏡有限公司","臺北市信義區基隆路2段193號","No. 193, Section 2, Keelung Rd, Xinyi District, Taipei City, Taiwan 110",25.0248306,121.5532271,"黎順里"
"456",24342148,"何烈國際股份有限公司","臺北市松山區復興北路1號2樓之2","No. 1, Fuxing N Rd, Songshan District, Taipei City, Taiwan 105",25.0480218,121.5443569,"中正里"
"457",24342935,"愛狗園有限公司","臺北市大安區基隆路2段124號","No. 124, Section 2, Keelung Rd, Da’an District, Taipei City, Taiwan 106",25.028914,121.5568329,"臨江里"
"458",24344005,"有意思有限公司","臺北市信義區吳興街284巷59弄7號4樓","No. 7, Alley 59, Lane 284, Wuxing St, Xinyi District, Taipei City, Taiwan 110",25.021661,121.5638174,"雙和里"
"459",24344639,"小仙女與老巫婆雲端人際飛算網有限公司","臺北市大安區忠孝東路4段299號9樓之1","No. 299, Section 4, Zhongxiao E Rd, Da’an District, Taipei City, Taiwan 106",25.041614,121.55532,"華聲里"
"460",24344758,"宣智行有限公司","臺北市松山區八德路3段36號11樓","No. 36, Section 3, Bade Rd, Songshan District, Taipei City, Taiwan 105",25.0480564,121.5521328,"敦化里"
"461",24344820,"小太陽舞動潛能顧問有限公司","臺北市松山區民生東路5段202號4樓之6","No. 202, Section 5, Minsheng E Rd, Songshan District, Taipei City, Taiwan 105",25.0582514,121.5645057,"富泰里"
"462",24345996,"屋伊特印刷股份有限公司","臺北市內湖區文湖街2之1號3樓","No. 2-1, Wenhu St, Neihu District, Taipei City, Taiwan 114",25.085782,121.5604474,"西康里"
"463",24346215,"山水聯合有限公司","臺北市松山區南京東路4段93號12樓","No. 93, Section 4, Nanjing E Rd, Songshan District, Taipei City, Taiwan 105",25.0518736,121.5541546,"東勢里"
"464",24346881,"福祿多實業有限公司","臺北市中山區復興北路356-1號12樓","No. 356, Fuxing N Rd, Zhongshan District, Taipei City, Taiwan 104",25.0603094,121.5438423,"江寧里"
"465",24348261,"皇家貝爾教育顧問有限公司","臺北市信義區忠孝東路4段560號10樓之2","No. 560, Section 4, Zhongxiao E Rd, Xinyi District, Taipei City, Taiwan 110",25.04106,121.563893,"興隆里"
"466",24349091,"合裕管理顧問股份有限公司","臺北市松山區敦化南路1段3號10樓之3","No. 3, Section 1, Dunhua S Rd, Songshan District, Taipei City, Taiwan 105",25.0474708,121.5493897,"敦化里"
"467",24355157,"俊川開發股份有限公司","臺北市信義區信義路5段7號27樓","Taipei 101, No. 7, Section 5, Xinyi Rd, Xinyi District, Taipei City, Taiwan 110",25.0339031,121.5645099,"Section 5, Xinyi Road"
"468",24360200,"大人物藝術製作有限公司","臺北市大安區建國南路1段160號2樓之1","No. 160, Section 1, Jianguo S Rd, Da’an District, Taipei City, Taiwan 106",25.0412,121.5368452,"民輝里"
"469",24378031,"心動力國際整合行銷有限公司","臺北市文山區景興路202巷11號5樓之6","No. 11, Lane 202, Jingxing Rd, Wenshan District, Taipei City, Taiwan 116",24.991458,121.543184,"景行里"
"470",24378270,"康見國際股份有限公司","臺北市大同區承德路1段17號10樓之7","No. 17, Section 1, Chengde Rd, Datong District, Taipei City, Taiwan 103",25.0500839,121.5170461,"建明里"
"471",24399373,"澺狄企業有限公司","臺北市中正區漢口街1段110號7樓之2","No. 110, Section 1, Hankou St, Zhongzheng District, Taipei City, Taiwan 100",25.044885,121.511011,"光復里"
"472",24403051,"億華高次元科技有限公司","臺北市松山區民族東路753號2樓之1","No. 753, Minzu E Rd, Songshan District, Taipei City, Taiwan 105",25.0624457,121.549657,"民福里"
"473",24406748,"萬世吉有限公司","臺北市大同區寧夏路63號7樓之1","No. 63, Ningxia Rd, Datong District, Taipei City, Taiwan 103",25.058244,121.5152833,"雙連里"
"474",24415423,"和樂多國際有限公司","臺北市內湖區民權東路6段296巷36號","No. 36, Lane 296, Section 6, Minquan E Rd, Neihu District, Taipei City, Taiwan 114",25.071771,121.607105,"葫洲里"
"475",24417105,"萬寶隆生物科技有限公司","臺北市中正區博愛路80號11樓","No. 80, Bo'ai Rd, Zhongzheng District, Taipei City, Taiwan 100",25.0445529,121.511239,"光復里"
"476",24419693,"奧斯圖國際顧問有限公司","臺北市中山區復興北路48號3樓","No. 48, Fuxing N Rd, Zhongshan District, Taipei City, Taiwan 104",25.0495466,121.5438464,"力行里"
"477",24419758,"立昇多媒體股份有限公司","臺北市大安區忠孝東路3段249號4樓","No. 249, Section 3, Zhongxiao E Rd, Da’an District, Taipei City, Taiwan 106",25.0418043,121.5414846,"誠安里"
"478",24431253,"富比積國際有限公司","臺北市中正區忠孝東路1段150號9樓之1","No. 150, Section 1, Zhongxiao E Rd, Zhongzheng District, Taipei City, Taiwan 100",25.0440101,121.5257604,"幸福里"
"479",24442842,"國麟顧問有限公司","臺北市信義區松智路1號11樓","110, Taiwan, Taipei City, Xinyi District, Songzhi Rd, 1號華新麗華花旗銀行大樓 Walsin(Citi Bank)",25.0386505,121.5661468,"Songzhi Road"
"480",24451264,"有點感動創意執行有限公司","臺北市中山區松江路8號7樓之19","No. 8, Songjiang Rd, Zhongshan District, Taipei City, Taiwan 104",25.0464502,121.532719,"興亞里"
"481",24453122,"廣龍策略行銷有限公司","臺北市中山區松江路185號6樓之1","No. 185, Songjiang Rd, Zhongshan District, Taipei City, Taiwan 104",25.0564886,121.5333489,"中央里"
"482",24453158,"肯沃有限公司","臺北市士林區社子街63巷11號1樓","No. 11, Lane 63, Shezi St, Shilin District, Taipei City, Taiwan 111",25.087951,121.5069962,"社新里"
"483",24453636,"佛育寶顧問有限公司","臺北市大同區民權西路136號10樓之6","No. 136, Minquan W Rd, Datong District, Taipei City, Taiwan 103",25.0627354,121.5164841,"民權里"
"484",24453853,"寵物派對國際有限公司","臺北市中山區渭水路24號2樓","No. 24, Weishui Rd, Zhongshan District, Taipei City, Taiwan 104",25.045426,121.534071,"朱園里"
"485",24455260,"展圓國際事業有限公司","臺北市大安區敦化南路1段188號7樓","No. 188, Section 1, Dunhua S Rd, Da’an District, Taipei City, Taiwan 106",25.0426818,121.548482,"光武里"
"486",24455281,"麥立斯有限公司","臺北市中山區錦州街169號1樓","No. 169, Jinzhou St, Zhongshan District, Taipei City, Taiwan 104",25.0604438,121.5306506,"新生里"
"487",24456303,"聯安管理顧問有限公司","臺北市信義區基隆路1段350號1樓之39","No. 350, Section 1, Keelung Rd, Xinyi District, Taipei City, Taiwan 110",25.036955,121.56155,"興隆里"
"488",24457400,"凡芮司國際開發有限公司","臺北市中正區羅斯福路2段14號4樓","No. 14, Section 2, Roosevelt Rd, Zhongzheng District, Taipei City, Taiwan 100",25.0287289,121.5208819,"南福里"
"489",24457507,"新鑫國際有限公司","臺北市大安區忠孝東路4段55-6號","No. 55-6, Section 4, Zhongxiao E Rd, Da’an District, Taipei City, Taiwan 106",25.041905,121.545519,"光武里"
"490",24457936,"天君國際事業有限公司","臺北市信義區松德路159號16樓","No. 159, Songde Rd, Xinyi District, Taipei City, Taiwan 110",25.036499,121.574874,"安康里"
"491",24458098,"艾米緹國際貿易有限公司","臺北市士林區重慶北路4段81-11號1樓","No. 81-11, Section 4, Chongqing N Rd, Shilin District, Taipei City, Taiwan 111",25.0816647,121.5123416,"福順里"
"492",24458153,"惠普資產管理顧問有限公司","臺北市中山區中山北路1段83巷5號4樓之3","No. 5, Lane 83, Section 1, Zhongshan N Rd, Zhongshan District, Taipei City, Taiwan 104",25.0503774,121.5229012,"正得里"
"493",24458169,"晶盛科技股份有限公司","臺北市中山區八德路2段260號7樓","No. 260, Section 2, Bade Rd, Zhongshan District, Taipei City, Taiwan 104",25.0464839,121.5409789,"埤頭里"
"494",24458457,"崴富多媒體有限公司","臺北市北投區行義路138號","No. 138, Xingyi Rd, Beitou District, Taipei City, Taiwan 112",25.12953,121.527985,"永和里"
"495",24458956,"鏡工坊光學有限公司","臺北市北投區明德路132號1樓","No. 132, Mingde Rd, Beitou District, Taipei City, Taiwan 112",25.1101619,121.5205514,"榮華里"
"496",24459006,"雋之有限公司","臺北市大同區南京西路18巷20之1號4樓","No. 20-1, Lane 18, Nanjing W Rd, Datong District, Taipei City, Taiwan 103",25.05117,121.520123,"建泰里"
"497",24459385,"派蒂芙有限公司","臺北市信義區基隆路1段400號13樓","No. 400, Section 1, Keelung Rd, Xinyi District, Taipei City, Taiwan 110",25.0341654,121.5599792,"中興里"
"498",24459738,"中甸微思廚櫥傢飾有限公司","臺北市士林區天母西路19號5樓","No. 19, Tianmu W Rd, Shilin District, Taipei City, Taiwan 111",25.118733,121.528091,"天玉里"
"499",24460904,"禮御生命美學股份有限公司","臺北市大安區臥龍街188巷42之7號","No. 42-7, Lane 188, Wolong St, Da’an District, Taipei City, Taiwan 106",25.016484,121.550795,"黎元里"
"500",24461684,"祥贊開發股份有限公司","臺北市內湖區南京東路6段451巷17號12樓","No. 17, Lane 368, Section 6, Nanjing E Rd, Neihu District, Taipei City, Taiwan 114",25.0588039,121.5867852,"石潭里"
"501",24462467,"尊悅樂活事業股份有限公司","臺北市中山區雙城街49巷12之1號","No. 12-1, Lane 49, Shuangcheng St, Zhongshan District, Taipei City, Taiwan 104",25.0678245,121.5252342,"圓山里"
"502",24462473,"安輿有限公司","臺北市北投區清江路25巷14號","No. 14, Lane 25, Qingjiang Rd, Beitou District, Taipei City, Taiwan 112",25.1314374,121.502291,"清江里"
"503",24464177,"脈動國際股份有限公司","臺北市信義區基隆路1段141號6樓","No. 141, Section 1, Keelung Rd, Xinyi District, Taipei City, Taiwan 110",25.043125,121.5658601,"興雅里"
"504",24464556,"遠雄聯合網路服務股份有限公司","臺北市信義區松高路1號24樓之1","No. 1, Songgao Rd, Xinyi District, Taipei City, Taiwan 110",25.0396333,121.5642112,"興雅里"
"505",24464606,"志泰國際股份有限公司","臺北市大同區南京西路41號5樓之8","No. 41, Nanjing W Rd, Datong District, Taipei City, Taiwan 103",25.0529272,121.5198509,"光能里"
"506",24464704,"宥蓁財務規劃顧問有限公司","臺北市中山區民權西路19號5樓","No. 19, Minquan W Rd, Zhongshan District, Taipei City, Taiwan 104",25.063028,121.5216203,"集英里"
"507",24464964,"碩威興業股份有限公司","臺北市文山區木柵路2段4號1樓","No. 4, Section 2, Muzha Rd, Wenshan District, Taipei City, Taiwan 116",24.988601,121.557917,"明義里"
"508",24464991,"好果子智業股份有限公司","臺北市松山區復興北路313巷32號2樓","No. 32, Lane 313, Fuxing N Rd, Songshan District, Taipei City, Taiwan 105",25.05889,121.5464774,"民有里"
"509",24465372,"宏闊國際有限公司","臺北市中山區長安東路2段129巷8號2樓","No. 8, Lane 129, Section 2, Chang'an E Rd, Zhongshan District, Taipei City, Taiwan 104",25.0490025,121.5359334,"朱園里"
"510",24465725,"傑飛創意生活有限公司","臺北市大安區復興南路1段237號3樓之1","No. 237, Section 1, Fuxing S Rd, Da’an District, Taipei City, Taiwan 106",25.03743,121.543998,"仁慈里"
"511",24466436,"薇拉婚紗服務股份有限公司","臺北市中山區植福路8號","No. 8, Zhifu Rd, Zhongshan District, Taipei City, Taiwan 104",25.083594,121.5549083,"成巨"
"512",24466626,"崇顥有限公司","臺北市南港區園區街23號(1樓)","No. 23, Yuanqu St, Nangang District, Taipei City, Taiwan 115",25.0591246,121.6107375,"三重里"
"513",24466920,"業家幫廣告有限公司","臺北市信義區忠孝東路4段560號10樓之2","No. 560, Section 4, Zhongxiao E Rd, Xinyi District, Taipei City, Taiwan 110",25.04106,121.563893,"興隆里"
"514",24467097,"百醫有限公司","臺北市中正區南昌路2段70號7樓","No. 70, Section 2, Nanchang Rd, Zhongzheng District, Taipei City, Taiwan 100",25.0266956,121.5211235,"板溪里"
"515",24467625,"葉石整合行銷有限公司","臺北市大同區長安西路180號6樓之1","No. 180, Chang'an W Rd, Datong District, Taipei City, Taiwan 103",25.0510589,121.515858,"建明里"
"516",24468321,"禾昌國際企業有限公司","臺北市大同區重慶北路1段83巷39號2樓",NA,NA,NA,NA
"517",24469882,"異想整合行銷有限公司","臺北市中山區長安東路2段169號4樓","No. 169, Section 2, Chang'an E Rd, Zhongshan District, Taipei City, Taiwan 104",25.048551,121.5407856,"Zhongshan District"
"518",24470298,"上奇資訊股份有限公司","臺北市中山區南京東路2段98號8樓之1","No. 98, Section 2, Nanjing E Rd, Zhongshan District, Taipei City, Taiwan 104",25.0517091,121.5316459,"興亞里"
"519",24470369,"豪雅眼鏡有限公司","臺北市大安區復興南路2段151巷20號1樓","No. 20, Lane 151, Section 2, Fuxing S Rd, Da’an District, Taipei City, Taiwan 106",25.0282822,121.5448072,"群賢里"
"520",24470678,"墨攻網路科技股份有限公司","臺北市內湖區瑞光路76巷101號3樓","No. 101, Lane 76, Ruiguang Rd, Neihu District, Taipei City, Taiwan 114",25.0683266,121.5786761,"湖元里"
"521",24470868,"怡亞通物流服務有限公司","臺北市中山區南京東路3段201號3樓","No. 201, Section 3, Nanjing E Rd, Zhongshan District, Taipei City, Taiwan 104",25.0521498,121.5426043,"復華里"
"522",24471114,"中旺眼鏡有限公司","臺北市松山區南京東路5段73號","No. 73, Section 5, Nanjing E Rd, Songshan District, Taipei City, Taiwan 105",25.0517002,121.5597472,"東光里"
"523",24472583,"品侑實業股份有限公司","臺北市大安區信義路4段30巷60號","No. 60, Lane 30, Section 4, Xinyi Rd, Da’an District, Taipei City, Taiwan 106",25.0315786,121.5445858,"住安里"
"524",24472922,"積禾國際股份有限公司","臺北市中山區新生北路3段21號3樓之4","No. 21, Section 3, Xinsheng N Rd, Zhongshan District, Taipei City, Taiwan 104",25.0642047,121.5281076,"新福里"
"525",24473990,"有情人婚姻顧問有限公司","臺北市中山區復興北路178號2樓之1","No. 178, Fuxing N Rd, Zhongshan District, Taipei City, Taiwan 104",25.0542459,121.543802,"復華里"
"526",24474040,"潘朵拉美容有限公司","臺北市中山區中山北路2段183巷2-1號及2-2號1、2樓","Lane 183, Section 2, Zhongshan N Rd, Zhongshan District, Taipei City, Taiwan 104",25.0637494,121.5231014,"Zhongshan District"
"527",24474196,"宜璇企業有限公司","臺北市松山區民生東路5段212巷11號1樓","No. 11, Lane 212, Section 5, Minsheng E Rd, Songshan District, Taipei City, Taiwan 105",25.058229,121.5650773,"富泰里"
"528",24474421,"享樂光學有限公司","臺北市中正區八德路1段43巷28號3樓","No. 28, Lane 43, Section 1, Bade Rd, Zhongzheng District, Taipei City, Taiwan 100",25.0446321,121.5314506,"梅花里"
"529",24475147,"金烽鎰科技有限公司","臺北市萬華區環河南路1段71號10樓之13","No. 71, Section 1, Huanhe S Rd, Wanhua District, Taipei City, Taiwan 108",25.0450164,121.5020265,"萬壽里"
"530",24475343,"瑞賢遊戲有限公司","臺北市松山區南京東路5段296號4樓之1","No. 296, Section 5, Nanjing E Rd, Songshan District, Taipei City, Taiwan 105",25.051112,121.567412,"新聚里"
"531",24475879,"敦南諾美爾眼鏡有限公司","臺北市大安區敦化南路1段222號","No. 222, Section 1, Dunhua S Rd, Da’an District, Taipei City, Taiwan 106",25.0411106,121.5484757,"仁愛里"
"532",24475955,"長樂聯合國際有限公司","臺北市萬華區和平西路3段109巷11號3樓","No. 11, Lane 109, Section 3, Heping W Rd, Wanhua District, Taipei City, Taiwan 108",25.0359014,121.500516,"富民里"
"533",24475977,"普羅製衣有限公司","臺北市大同區延平北路2段43巷12號1樓","No. 12, Lane 43, Section 2, Yanping N Rd, Datong District, Taipei City, Taiwan 103",25.0551489,121.5123906,"朝陽里"
"534",24476119,"樂視股份有限公司","臺北市大安區羅斯福路2段83之1號","No. 83-1, Section 2, Roosevelt Rd, Da’an District, Taipei City, Taiwan 106",25.0257001,121.5238012,"古莊里"
"535",24476785,"名賀國際股份有限公司","臺北市大安區安和路1段90巷1號","No. 1, Lane 90, Section 1, Anhe Rd, Da’an District, Taipei City, Taiwan 106",25.0347437,121.552186,"敦安里"
"536",24476808,"民富興業有限公司","臺北市大同區迪化街1段46巷22號3樓","No. 22, Lane 46, Section 1, Dihua St, Datong District, Taipei City, Taiwan 103",25.054917,121.509369,"永樂里"
"537",24477721,"樂多數位股份有限公司","臺北市信義區基隆路1段200號23樓","No. 200, Section 1, Keelung Rd, Xinyi District, Taipei City, Taiwan 110",25.0401913,121.5635556,"興隆里"
"538",24477969,"魚樂整合行銷有限公司","臺北市大安區安東街35巷17號3樓之6","No. 17, Lane 35, Andong St, Da’an District, Taipei City, Taiwan 106",25.0441354,121.5431094,"誠安里"
"539",24478708,"國泰企業管理顧問有限公司","臺北市士林區福國路21號4樓","No. 21, Fuguo Rd, Shilin District, Taipei City, Taiwan 111",25.1018852,121.5243778,"德行里"
"540",24479214,"上吉創意媒體股份有限公司","臺北市松山區八德路4段453巷7號2樓","No. 7, Section 4, Bade Rd, Songshan District, Taipei City, Taiwan 105",25.0484113,121.558015,"吉祥里"
"541",24479642,"安之居事業有限公司","臺北市北投區石牌路2段157號","No. 157, Section 2, Shipai Rd, Beitou District, Taipei City, Taiwan 112",25.1183824,121.5177838,"永明里"
"542",24480015,"寶利<U+5008>興業股份有限公司","臺北市內湖區瑞光路513巷26號6樓之2","No. 26, Lane 513, Ruiguang Rd, Neihu District, Taipei City, Taiwan 114",25.0797171,121.5696941,"西湖里"
"543",24481181,"果禾娛樂有限公司","臺北市中山區民權東路2段135巷30弄23號","No. 23, Alley 30, Lane 135, Section 2, Minquan E Rd, Zhongshan District, Taipei City, Taiwan 104",25.064301,121.5340336,"行政里"
"544",24481963,"禾大國際管理顧問股份有限公司","臺北市大安區復興南路2段65號3樓","No. 65, Section 2, Fuxing S Rd, Da’an District, Taipei City, Taiwan 106",25.0306661,121.5438068,"龍雲里"
"545",24483195,"杜樂麗心饌有限公司","臺北市大安區市民大道4段108號","No. 108, Section 4, Civic Blvd, Da’an District, Taipei City, Taiwan 106",25.044323,121.550498,"建安里"
"546",24483300,"仁奕醫美股份有限公司","臺北市中山區敬業三路155號","No. 155, Jingye 3rd Rd, Zhongshan District, Taipei City, Taiwan 104",25.079579,121.556102,"成巨"
"547",24483364,"享富行銷有限公司","臺北市萬華區康定路101巷9之1號3樓","No. 9-1, Lane 101, Kangding Rd, Wanhua District, Taipei City, Taiwan 108",25.0395757,121.5024141,"福音里"
"548",24483456,"鑫坊企業有限公司","臺北市中正區仁愛路1段18巷8號","No. 8, Lane 18, Section 1, Ren'ai Rd, Zhongzheng District, Taipei City, Taiwan 100",25.0382326,121.5218447,"東門里"
"549",24483673,"長沂國際實業股份有限公司","臺北市中正區博愛路53號5樓","No. 53, Bo'ai Rd, Zhongzheng District, Taipei City, Taiwan 100",25.0445079,121.511616,"光復里"
"550",24483694,"畇謙堂文化事業有限公司","臺北市萬華區萬大路493巷48弄23之14號","No. 23-14, Alley 48, Lane 493, Wanda Rd, Wanhua District, Taipei City, Taiwan 108",25.0197585,121.500051,"興德里"
"551",24483934,"普菲特環宇國際有限公司","臺北市中山區中山北路3段36巷2號9樓","No. 2, Lane 36, Section 3, Zhongshan N Rd, Zhongshan District, Taipei City, Taiwan 104",25.065735,121.5218041,"集英里"
"552",24484384,"巴夏股份有限公司","臺北市信義區永吉路187巷17號12樓","No. 17, Lane 187, Yongji Rd, Xinyi District, Taipei City, Taiwan 110",25.046381,121.572581,"五常里"
"553",24485237,"勤翔整合設計有限公司","臺北市大安區基隆路2段190號8樓之4","No. 190, Section 2, Keelung Rd, Da’an District, Taipei City, Taiwan 106",25.0241109,121.551988,"虎嘯里"
"554",24485877,"振詮有限公司","臺北市大同區太原街11巷35號2樓","No. 35, Lane 11, Taiyuan Rd, Datong District, Taipei City, Taiwan 103",25.0493534,121.5159743,"建明里"
"555",24486051,"玄人社股份有限公司","臺北市中山區中山北路3段53-6號4樓","No. 53, Section 3, Zhongshan N Rd, Zhongshan District, Taipei City, Taiwan 104",25.0682891,121.5229683,"圓山里"
"556",24486094,"維納康股份有限公司","臺北市中山區長春路328號4樓之6","No. 328, Changchun Rd, Zhongshan District, Taipei City, Taiwan 104",25.054479,121.5408102,"復華里"
"557",24486290,"玉米粒創意整合行銷股份有限公司","臺北市中正區漢口街1段92號1樓","No. 92, Section 1, Hankou St, Zhongzheng District, Taipei City, Taiwan 100",25.0450809,121.511805,"光復里"
"558",24486411,"再村企業有限公司","臺北市士林區通河東街1段124巷10號1樓","111, Taiwan, Taipei City, Shilin District, 通河東街一段124巷10號",25.0865172,121.516459,"福中里"
"559",24487299,"凡妮帝國際有限公司","臺北市文山區木柵路4段147號","No. 147, Section 4, Muzha Rd, Wenshan District, Taipei City, Taiwan 116",24.9984453,121.5746457,"博嘉里"
"560",24487973,"溱家企業有限公司","臺北市大同區承德路3段273號","No. 273, Section 3, Chengde Rd, Datong District, Taipei City, Taiwan 103",25.072713,121.519241,"保安里"
"561",24488760,"富鼎國際顧問股份有限公司","臺北市大同區承德路2段215號7樓之3","No. 215, Section 2, Chengde Rd, Datong District, Taipei City, Taiwan 103",25.059837,121.5184352,"雙連里"
"562",24488847,"萬龍科技實業有限公司","臺北市文山區興隆路1段70巷11弄12號","No. 12, Alley 11, Lane 70, Section 1, Xinglong Rd, Wenshan District, Taipei City, Taiwan 116",25.0021528,121.5402694,"萬祥里"
"563",24489183,"兩岸管理顧問有限公司","臺北市信義區松德路18號6樓","No. 18, Songde Rd, Xinyi District, Taipei City, Taiwan 110",25.039393,121.577213,"廣居里"
"564",24489352,"復興資訊有限公司","臺北市北投區中和街230號","No. 230, Zhonghe St, Beitou District, Taipei City, Taiwan 112",25.139261,121.501654,"開明里"
"565",24489487,"緹佧芙媒體科技有限公司","臺北市中山區林森北路100號6樓","No. 100, Linsen N Rd, Zhongshan District, Taipei City, Taiwan 104",25.0504932,121.5247181,"正得里"
"566",24491667,"棒趣國際企業有限公司","臺北市士林區延平北路6段219號","No. 219, Section 6, Yanping N Rd, Shilin District, Taipei City, Taiwan 111",25.0893667,121.5054194,"社新里"
"567",24491890,"麥克愛愛有限公司","臺北市中山區松江路31號8樓之1","No. 31, Songjiang Rd, Zhongshan District, Taipei City, Taiwan 104",25.0474392,121.5331738,"朱園里"
"568",24492053,"茂倫科技有限公司","臺北市中山區民族東路476號","No. 476, Minzu E Rd, Zhongshan District, Taipei City, Taiwan 104",25.0679552,121.5408814,"行仁里"
"569",24492167,"鈞達實業有限公司","臺北市松山區民生東路4段79號","No. 79, Section 4, Minsheng E Rd, Songshan District, Taipei City, Taiwan 105",25.0580749,121.551482,"精忠里"
"570",24492477,"宏策諮詢有限公司","臺北市信義區信義路5段150巷2號15樓之1","No. 2, Lane 150, Section 5, Xinyi Rd, Xinyi District, Taipei City, Taiwan 110",25.0281959,121.570994,"三犁里"
"571",24492568,"嗆思重點行銷有限公司","臺北市大安區忠孝東路3段136號4樓之3","No. 136, Section 3, Zhongxiao E Rd, Da’an District, Taipei City, Taiwan 106",25.041446,121.537672,"義村里"
"572",24493118,"耘成科技有限公司","臺北市中山區松江路283號5樓之1","No. 283, Songjiang Rd, Zhongshan District, Taipei City, Taiwan 104",25.060222,121.5334757,"松江里"
"573",24493216,"竟成國際有限公司","臺北市信義區基隆路1段155號5樓之8","No. 155, Section 1, Keelung Rd, Xinyi District, Taipei City, Taiwan 110",25.042178,121.565396,"興雅里"
"574",24493460,"衣創有限公司","臺北市內湖區洲子街70號7樓之1","No. 70, Zhouzi St, Neihu District, Taipei City, Taiwan 114",25.079558,121.5719457,"港墘里"
"575",24493784,"市民眼鏡有限公司","臺北市中山區八德路2段327號","No. 327, Section 2, Bade Rd, Zhongshan District, Taipei City, Taiwan 104",25.047496,121.543147,"朱崙里"
"576",24493996,"亞伯蘭國際有限公司","臺北市大安區復興南路1段107巷19號5樓","No. 19, Lane 107, Section 1, Fuxing S Rd, Da’an District, Taipei City, Taiwan 106",25.0437127,121.545209,"光武里"
"577",24494778,"鴻安整合行銷顧問股份有限公司","臺北市中山區中山北路3段29號8樓","No. 29, Section 3, Zhongshan N Rd, Zhongshan District, Taipei City, Taiwan 104",25.0654458,121.5223723,"晴光里"
"578",24496494,"昇德人力派遣有限公司","臺北市大安區臥龍街163號","No. 163, Wolong St, Da’an District, Taipei City, Taiwan 106",25.0183349,121.5512363,"黎元里"
"579",24496585,"室多綠科技股份有限公司","臺北市松山區光復南路33巷20弄4號2樓","No. 4, Alley 20, Lane 33, Guangfu S Rd, Songshan District, Taipei City, Taiwan 105",25.0464869,121.5590223,"復盛里"
"580",24496902,"永丞能量寶石有限公司","臺北市信義區福德街155號1樓","No. 155, Fude St, Xinyi District, Taipei City, Taiwan 110",25.0376617,121.5832213,"中坡里"
"581",24497803,"以立股份有限公司","臺北市大安區浦城街26巷2之2號","No. 2-2, Lane 26, Pucheng St, Da’an District, Taipei City, Taiwan 106",25.022762,121.526565,"古莊里"
"582",24498562,"乙宸有限公司","臺北市中山區遼寧街201巷9號1樓","No. 9, Lane 201, Liaoning St, Zhongshan District, Taipei City, Taiwan 104",25.054312,121.542966,"復華里"
"583",24499041,"悅禾生技股份有限公司","臺北市大安區安和路2段171巷9號","No. 9, Lane 171, Section 2, Anhe Rd, Da’an District, Taipei City, Taiwan 106",25.0281944,121.5504906,"全安里"
"584",24499345,"鉅雲科技股份有限公司","臺北市大安區復興南路2段35號9樓之1","No. 35, Section 2, Fuxing S Rd, Da’an District, Taipei City, Taiwan 106",25.0317383,121.5438778,"住安里"
"585",24499529,"九宮數碼股份有限公司","臺北市中正區忠孝西路1段41號6樓之4","No. 41, Section 1, Zhongxiao W Rd, Zhongzheng District, Taipei City, Taiwan 100",25.046302,121.518464,"黎明里"
"586",24500011,"城中企業有限公司","臺北市中正區武昌街1段17號1樓","No. 17, Section 1, Wuchang St, Zhongzheng District, Taipei City, Taiwan 100",25.044225,121.512462,"光復里"
"587",24530351,"凱樂生活股份有限公司","臺北市大安區敦化南路2段170號10樓","No. 170, Section 2, Dunhua S Rd, Da’an District, Taipei City, Taiwan 106",25.0241005,121.5483086,"虎嘯里"
"588",24531302,"信成管理顧問有限公司","臺北市內湖區南京東路6段451巷57號11樓之8","No. 57, Section 6, Nanjing E Rd, Neihu District, Taipei City, Taiwan 114",25.0542931,121.576913,"行善里"
"589",24532007,"摩力科廣告有限公司","臺北市中山區南京東路2段108號8樓之23","No. 108, Section 2, Nanjing E Rd, Zhongshan District, Taipei City, Taiwan 104",25.0517765,121.53209,"興亞里"
"590",24532061,"安陽事業有限公司","臺北市北投區雙全街16號","No. 16, Shuangquan St, Beitou District, Taipei City, Taiwan 112",25.138928,121.501057,"中庸里"
"591",24532246,"東光新科技有限公司","臺北市大安區光復南路260巷23號3樓","No. 23, Lane 260, Guangfu S Rd, Da’an District, Taipei City, Taiwan 106",25.0401396,121.5563923,"正聲里"
"592",24532294,"艾卡斯管理顧問有限公司","臺北市松山區八德路2段374號6樓之2","No. 374, Section 2, Bade Rd, Songshan District, Taipei City, Taiwan 105",25.0478905,121.54564,"中崙里"
"593",24532674,"喵喵堡生活有限公司","臺北市大安區信義路4段279號8樓","No. 279, Section 4, Xinyi Rd, Da’an District, Taipei City, Taiwan 106",25.0333997,121.5545918,"敦煌里"
"594",24532695,"翔凱工程有限公司","臺北市萬華區西昌街186號1樓","No. 186, Xichang St, Wanhua District, Taipei City, Taiwan 108",25.0377562,121.5004954,"富民里"
"595",24532739,"奧德森迪科技行銷顧問有限公司","臺北市大安區忠孝東路4段169號11樓之1","No. 169, Section 4, Zhongxiao E Rd, Da’an District, Taipei City, Taiwan 106",25.0415843,121.5504279,"建安里"
"596",24532920,"悅新企管顧問有限公司","臺北市中正區詔安街266號4樓","No. 266, Zhaoan St, Zhongzheng District, Taipei City, Taiwan 100",25.0277437,121.508714,"永昌里"
"597",24533202,"四田一心品牌創意行銷有限公司","臺北市大安區忠孝東路4段176之1號2樓","No. 176-1, Section 4, Zhongxiao E Rd, Da’an District, Taipei City, Taiwan 106",25.0412727,121.5512621,"建倫里"
"598",24533218,"賀喜可醫學出版有限公司","臺北市中山區南京東路1段25號8樓之4","No. 25, Section 1, Nanjing E Rd, Zhongshan District, Taipei City, Taiwan 104",25.0523692,121.5242727,"康樂里"
"599",24534011,"邁泰國際有限公司","臺北市大安區信義路4段279號8樓","No. 279, Section 4, Xinyi Rd, Da’an District, Taipei City, Taiwan 106",25.0333997,121.5545918,"敦煌里"
"600",24534188,"震寰國際資源整合有限公司","臺北市中山區松江路283號5樓之1","No. 283, Songjiang Rd, Zhongshan District, Taipei City, Taiwan 104",25.060222,121.5334757,"松江里"
"601",24534265,"仁愛福華有限公司","臺北市大安區仁愛路3段127號4樓","No. 127, Section 3, Ren'ai Rd, Da’an District, Taipei City, Taiwan 106",25.0383699,121.5422414,"義村里"
"602",24534687,"<U+7468>鑫有限公司","臺北市大安區仁愛路4段29之2號7樓","No. 29-2, Section 4, Ren'ai Rd, Da’an District, Taipei City, Taiwan 106",25.0382311,121.5454632,"仁愛里"
"603",24534912,"長閎企業有限公司","臺北市大安區忠孝東路4段169號11樓之1","No. 169, Section 4, Zhongxiao E Rd, Da’an District, Taipei City, Taiwan 106",25.0415843,121.5504279,"建安里"
"604",24534960,"歐羅巴實業有限公司","臺北市中山區復興北路48號3樓","No. 48, Fuxing N Rd, Zhongshan District, Taipei City, Taiwan 104",25.0495466,121.5438464,"力行里"
"605",24535089,"細胞熊有限公司","臺北市中山區南京東路2段137號14樓","No. 137, Section 2, Nanjing E Rd, Zhongshan District, Taipei City, Taiwan 104",25.052339,121.535082,"中央里"
"606",24535320,"大昌地產股份有限公司","臺北市中山區松江路17號9樓","No. 17, Songjiang Rd, Zhongshan District, Taipei City, Taiwan 104",25.0465453,121.5331453,"朱園里"
"607",24535573,"愛喜玩音樂有限公司","臺北市文山區木柵路4段147號1樓","No. 147, Section 4, Muzha Rd, Wenshan District, Taipei City, Taiwan 116",24.9984453,121.5746457,"博嘉里"
"608",24535763,"青禾盛實業有限公司","臺北市內湖區港華街119號","No. 119, Ganghua St, Neihu District, Taipei City, Taiwan 114",25.0837,121.5727862,"港華里"
"609",24535784,"上量光電科技有限公司","臺北市南港區玉成街201巷6弄18號1樓","No. 18, Alley 6, Lane 201, Yucheng St, Nangang District, Taipei City, Taiwan 115",25.0440839,121.585755,"鴻福里"
"610",24535877,"優利代有限公司","臺北市中山區農安街71號","No. 71, Nong'an St, Zhongshan District, Taipei City, Taiwan 104",25.0649801,121.5282478,"新庄里"
"611",24536046,"中洋國際有限公司","臺北市中山區林森北路380號5樓之1","No. 380, Linsen N Rd, Zhongshan District, Taipei City, Taiwan 104",25.0583625,121.5253503,"聚盛里"
"612",24536931,"水靈書網有限公司","臺北市大同區安西街100號2樓","No. 100, Anxi St, Datong District, Taipei City, Taiwan 103",25.0609105,121.5098496,"南芳里"
"613",24537452,"璽傳國際有限公司","臺北市中山區吉林路360號1樓","No. 360, Jilin Rd, Zhongshan District, Taipei City, Taiwan 104",25.0638912,121.5301888,"新福里"
"614",24537495,"維智不動產顧問有限公司","臺北市中正區汀洲路1段57號3樓","No. 57, Section 1, Tingzhou Rd, Zhongzheng District, Taipei City, Taiwan 100",25.0302099,121.5077248,"龍興里"
"615",24537571,"艾尚有限公司","臺北市萬華區康定路82號5樓","No. 82, Kangding Rd, Wanhua District, Taipei City, Taiwan 108",25.0420629,121.502224,"菜園里"
"616",24537827,"源星娛樂傳媒事業有限公司","臺北市大安區光復南路280巷36之2號3樓","No. 36-2, Lane 280, Guangfu S Rd, Da’an District, Taipei City, Taiwan 106",25.0399355,121.555842,"正聲里"
"617",24538184,"經研貿易股份有限公司","臺北市大安區市民大道4段216號","No. 216, Section 4, Civic Blvd, Da’an District, Taipei City, Taiwan 106",25.044513,121.556157,"華聲里"
"618",24538305,"吉英資訊有限公司","臺北市中山區林森北路356號9樓","No. 356, Linsen N Rd, Zhongshan District, Taipei City, Taiwan 104",25.0571639,121.5253481,"中山里"
"619",24538868,"誠邑土地開發有限公司","臺北市中山區長安東路2段81號3樓","No. 81, Section 2, Chang'an E Rd, Zhongshan District, Taipei City, Taiwan 104",25.0485709,121.5345357,"朱園里"
"620",24539254,"奇咪有限公司","臺北市內湖區金龍路137號","No. 137, Jinlong Rd, Neihu District, Taipei City, Taiwan 114",25.0860736,121.5900976,"金龍里"
"621",24539536,"天元行銷有限公司","臺北市大安區和平東路1段77號9樓之1","No. 77, Section 1, Heping E Rd, Da’an District, Taipei City, Taiwan 106",25.0271109,121.5251244,"錦華里"
"622",24540105,"嘉速美國際有限公司","臺北市大安區忠孝東路4段130號3樓","No. 130, Section 4, Zhongxiao E Rd, Da’an District, Taipei City, Taiwan 106",25.0414617,121.5481469,"仁愛里"
"623",24540111,"旭謄有限公司","臺北市大安區延吉街137巷7弄5號2樓","No. 5, Alley 7, Lane 137, Yanji St, Da’an District, Taipei City, Taiwan 106",25.04237,121.5547803,"華聲里"
"624",24540219,"富貴有道有限公司","臺北市中山區新生北路2段31之1號12樓",NA,NA,NA,NA
"625",24540251,"大安仁愛股份有限公司","臺北市大安區忠孝東路4段299號11樓","No. 299, Section 4, Zhongxiao E Rd, Da’an District, Taipei City, Taiwan 106",25.041614,121.55532,"華聲里"
"626",24540392,"荳朵有限公司","臺北市大安區忠孝東路4段59號6樓之6","No. 59, Section 4, Zhongxiao E Rd, Da’an District, Taipei City, Taiwan 106",25.041791,121.545898,"光武里"
"627",24540604,"勝太生物科技股份有限公司","臺北市信義區信義路4段415號2樓","No. 415, Section 4, Xinyi Rd, Xinyi District, Taipei City, Taiwan 110",25.0333249,121.5593752,"中興里"
"628",24540626,"聽見音樂股份有限公司","臺北市士林區中山北路7段165之2號1樓","No. 165-2, Section 7, Zhongshan N Rd, Shilin District, Taipei City, Taiwan 111",25.1242406,121.532381,"天母里"
"629",24540674,"藍第國際工程顧問股份有限公司","臺北市信義區信義路4段415號2樓","No. 415, Section 4, Xinyi Rd, Xinyi District, Taipei City, Taiwan 110",25.0333249,121.5593752,"中興里"
"630",24541337,"蘇小軒實業有限公司","臺北市中山區長春路184號4樓之2","No. 184, Changchun Rd, Zhongshan District, Taipei City, Taiwan 104",25.0546275,121.5346469,"中央里"
"631",24541391,"四熙策略公關顧問有限公司","臺北市中正區館前路20號8樓之1","No. 20, Guanqian Rd, Zhongzheng District, Taipei City, Taiwan 100",25.045214,121.5148742,"黎明里"
"632",24541701,"藝時尚有限公司","臺北市大安區仁愛路4段137號6樓之1","No. 137, Section 4, Ren'ai Rd, Da’an District, Taipei City, Taiwan 106",25.038069,121.550883,"建倫里"
"633",24541759,"山茶屋有限公司","臺北市中山區中山北路1段121巷3號1樓","No. 3, Lane 121, Section 1, Zhongshan N Rd, Zhongshan District, Taipei City, Taiwan 104",25.0513136,121.5229517,"正得里"
"634",24542286,"姚業創意有限公司","臺北市信義區信義路5段8號14樓","No. 8, Section 5, Xinyi Rd, Xinyi District, Taipei City, Taiwan 110",25.0327504,121.5612195,"景新里"
"635",24542666,"金奇有限公司","臺北市松山區光復北路5號、5號2樓","No. 5, Guangfu N Rd, Songshan District, Taipei City, Taiwan 105",25.0487685,121.5580417,"吉祥里"
"636",24542912,"燦之光國際有限公司","臺北市中山區松江路283號5樓","No. 283, Songjiang Rd, Zhongshan District, Taipei City, Taiwan 104",25.060222,121.5334757,"松江里"
"637",24543200,"創元光學股份有限公司","臺北市信義區忠孝東路5段474號4樓","No. 474, Section 5, Zhongxiao E Rd, Xinyi District, Taipei City, Taiwan 110",25.040639,121.5771799,"廣居里"
"638",24543530,"立星空中舞蹈有限公司","臺北市中山區中山北路1段83巷5號5樓之15","No. 5, Lane 83, Section 1, Zhongshan N Rd, Zhongshan District, Taipei City, Taiwan 104",25.0503774,121.5229012,"正得里"
"639",24543829,"禾潤生技有限公司","臺北市大安區和平東路1段73號7樓","No. 73, Section 1, Heping E Rd, Da’an District, Taipei City, Taiwan 106",25.0271541,121.5248407,"錦華里"
"640",24545431,"曜輝實業股份有限公司","臺北市萬華區西昌街142號8樓之2","No. 142, Xichang St, Wanhua District, Taipei City, Taiwan 108",25.0390048,121.5005341,"富民里"
"641",24545903,"督印有限公司","臺北市中山區林森北路50號7樓之2","No. 50, Linsen N Rd, Zhongshan District, Taipei City, Taiwan 104",25.0484947,121.5242467,"正得里"
"642",24546184,"韌與柔生活組織有限公司","臺北市中山區松江路283號7樓","No. 283, Songjiang Rd, Zhongshan District, Taipei City, Taiwan 104",25.060222,121.5334757,"松江里"
"643",24546311,"歐克盟國際貿易有限公司","臺北市中山區南京東路3段201號3樓","No. 201, Section 3, Nanjing E Rd, Zhongshan District, Taipei City, Taiwan 104",25.0521498,121.5426043,"復華里"
"644",24546826,"菉漾廣告行銷股份有限公司","臺北市中山區南京東路2段108號8樓之23","No. 108, Section 2, Nanjing E Rd, Zhongshan District, Taipei City, Taiwan 104",25.0517765,121.53209,"興亞里"
"645",24547108,"天佑國際服務事業有限公司","臺北市中山區民權東路2段135巷18號","No. 18, Lane 135, Section 2, Minquan E Rd, Zhongshan District, Taipei City, Taiwan 104",25.0637229,121.5349285,"行政里"
"646",24547402,"台灣健康管理顧問有限公司","臺北市大安區忠孝東路4段107號12樓之5","No. 107, Section 4, Zhongxiao E Rd, Da’an District, Taipei City, Taiwan 106",25.0417523,121.5483089,"光武里"
"647",24547466,"領袖人整合行銷有限公司","臺北市大安區忠孝東路4段148號7樓","No. 148, Section 4, Zhongxiao E Rd, Da’an District, Taipei City, Taiwan 106",25.041252,121.549792,"建倫里"
"648",24547579,"酷遊天股份有限公司","臺北市南港區八德路4段768巷5號3樓之1","No. 5, Lane 768, Section 4, Bade Rd, Nangang District, Taipei City, Taiwan 115",25.049962,121.580602,"玉成里"
"649",24547851,"揚科科技有限公司","臺北市大安區敦化南路1段225號地下2樓之12","No. 225, Section 1, Dunhua S Rd, Da’an District, Taipei City, Taiwan 106",25.0405889,121.54934,"建倫里"
"650",24548198,"砌思弄舍創藝有限公司","臺北市信義區和平東路3段391巷8弄74號","No. 74, Alley 8, Lane 391, Section 3, Heping E Rd, Xinyi District, Taipei City, Taiwan 110",25.0213481,121.5583379,"黎忠里"
"651",24548275,"三言院有限公司","臺北市南港區南港路2段38巷39號4樓","No. 39, Section 2, Nangang Rd, Nangang District, Taipei City, Taiwan 115",25.0534659,121.6028154,"東明里"
"652",24548296,"創新家商務服務有限公司","臺北市士林區承德路4段198號3樓","No. 198, Section 4, Chengde Rd, Shilin District, Taipei City, Taiwan 111",25.087548,121.521985,"前港里"
"653",24548325,"紅綽生技有限公司","臺北市中山區中山北路3段28號4樓之6","No. 28, Section 3, Zhongshan N Rd, Zhongshan District, Taipei City, Taiwan 104",25.065184,121.5221417,"集英里"
"654",24548388,"漢諾運動行銷有限公司","臺北市中山區復興北路86號9樓","No. 86, Fuxing N Rd, Zhongshan District, Taipei City, Taiwan 104",25.0514195,121.5438924,"力行里"
"655",24548697,"薈萃一堂公關顧問有限公司","臺北市中山區松江路2號10樓之2","No. 2, Songjiang Rd, Zhongshan District, Taipei City, Taiwan 104",25.0462781,121.5326671,"興亞里"
"656",24549350,"瑞門國際企業有限公司","臺北市信義區富陽街34-1號1樓","No. 34, Fuyang St, Xinyi District, Taipei City, Taiwan 110",25.022851,121.556217,"黎平里"
"657",24549817,"傳承通路管理顧問有限公司","臺北市北投區裕民二路49巷5號","Lane 49, Yumin 2nd Rd, Beitou District, Taipei City, Taiwan 112",25.1146027,121.5172038,"Beitou District"
"658",24549892,"中國唐誠后勤產業有限公司","臺北市中山區龍江路12之1號1樓","No. 12-1, Longjiang Rd, Zhongshan District, Taipei City, Taiwan 104",25.0476588,121.5402711,"朱崙里"
"659",24549984,"維肯生活設計開發有限公司","臺北市內湖區陽光街161巷20號5樓","No. 20, Lane 161, Yangguang St, Neihu District, Taipei City, Taiwan 114",25.0746144,121.5860217,"紫陽里"
"660",24550166,"博盛佳國際有限公司","臺北市松山區南京東路4段130號2樓之1","No. 130, Section 4, Nanjing E Rd, Songshan District, Taipei City, Taiwan 105",25.0513459,121.5556721,"復勢里"
"661",24550356,"蒙朗刻股份有限公司","臺北市內湖區金豐街56號5樓","No. 56, Jinfeng St, Neihu District, Taipei City, Taiwan 114",25.0650272,121.5882817,"Neihu District"
"662",24550406,"易鍇實業有限公司","臺北市信義區松山路393巷7號","No. 7, Lane 393, Songshan Rd, Xinyi District, Taipei City, Taiwan 110",25.041942,121.578577,"永春里"
"663",24550503,"宸寰科技有限公司","臺北市松山區光復南路57巷18號4樓","No. 18, Lane 57, Guangfu S Rd, Songshan District, Taipei City, Taiwan 105",25.045831,121.5589902,"復盛里"
"664",24550715,"玩美工程有限公司","臺北市南港區成功路1段63號1樓","No. 63, Section 1, Chenggong Rd, Nangang District, Taipei City, Taiwan 115",25.056472,121.592989,"西新里"
"665",24550742,"詠霖有限公司","臺北市文山區木柵路4段149巷7號","No. 7, Lane 149, Section 4, Muzha Rd, Wenshan District, Taipei City, Taiwan 116",24.998984,121.574626,"博嘉里"
"666",24550807,"華霏國際貿易有限公司","臺北市中山區建國北路2段33號14樓之3之4",NA,NA,NA,NA
"667",24551411,"馬德里服飾有限公司","臺北市信義區永吉路278巷1弄20號1樓","No. 20, Alley 1, Lane 278, Yongji Rd, Xinyi District, Taipei City, Taiwan 110",25.044894,121.574877,"五全里"
"668",24551756,"旺捷數位行銷整合股份有限公司","臺北市中正區忠孝東路2段130號12樓之5","No. 130, Section 2, Zhongxiao E Rd, Zhongzheng District, Taipei City, Taiwan 100",25.042371,121.531806,"幸市里"
"669",24551947,"奧格立朋友文化有限公司","臺北市中山區建國北路1段15號2樓",NA,NA,NA,NA
"670",24552191,"光宇車業有限公司","臺北市松山區民生東路5段57號1樓","No. 57, Section 5, Minsheng E Rd, Songshan District, Taipei City, Taiwan 105",25.058616,121.557864,"東榮里"
"671",24552755,"正向烘焙股份有限公司","臺北市中山區建國北路2段6巷27號1樓",NA,NA,NA,NA
"672",24553092,"澤宇有限公司","臺北市內湖區新明路355之3號","No. 355, Xinming Rd, Neihu District, Taipei City, Taiwan 114",25.0559524,121.5827639,"週美里"
"673",24554043,"達特沈國際有限公司","臺北市大安區敦化南路1段376號4樓之3","No. 376, Section 1, Dunhua S Rd, Da’an District, Taipei City, Taiwan 106",25.0335467,121.5481859,"德安里"
"674",24554368,"皕勝國際有限公司","臺北市大安區市民大道3段142號4樓","No. 142, Section 3, Civic Blvd, Da’an District, Taipei City, Taiwan 106",25.044661,121.53514,"民輝里"
"675",24554613,"阿布卡峇有限公司","臺北市信義區基隆路2段149之49號11樓之4","No. 149-49, Section 2, Keelung Rd, Xinyi District, Taipei City, Taiwan 110",25.0265295,121.5552545,"黎順里"
"676",24555367,"薇鼎婚禮事業有限公司","臺北市松山區南京東路5段163號3樓之5","No. 163, Section 5, Nanjing E Rd, Songshan District, Taipei City, Taiwan 105",25.0517161,121.5624688,"東光里"
"677",24555373,"沙崙玫瑰有限公司","臺北市南港區南港路1段130號","No. 130, Section 1, Nangang Rd, Nangang District, Taipei City, Taiwan 115",25.0555467,121.613289,"三重里"
