"","CID","CNAME","CADDR","Response_Address","Response_Latitude","Response_Longitude","village"
"1",1069738,"岳達有限公司","臺北市萬華區漢中街147巷14號1樓","No. 14, Lane 147, Hanzhong St, Wanhua District, Taipei City, Taiwan 108",25.041284,121.507385,"新起里"
"2",4196414,"工商財經數位股份有限公司","臺北市萬華區大理街132號","No. 132, Dali St, Wanhua District, Taipei City, Taiwan 108",25.03378,121.496272,"糖部里"
"3",4461573,"協民隆有限公司","臺北市大安區復興南路2段381號12樓之2","No. 381, Section 2, Fuxing S Rd, Da’an District, Taipei City, Taiwan 106",25.022287,121.543666,"臥龍里"
"4",4489586,"衍良設計事業有限公司","臺北市大同區太原路97巷19號","No. 19, Lane 97, Taiyuan Rd, Datong District, Taipei City, Taiwan 103",25.052136,121.516521,"建泰里"
"5",4913416,"正一乾冰有限公司","臺北市文山區羅斯福路5段192巷25號1樓","No. 25, Lane 192, Section 5, Roosevelt Rd, Wenshan District, Taipei City, Taiwan 116",25.0033648,121.5369765,"萬年里"
"6",4987726,"蘋果樹科技有限公司","臺北市大安區金華街223之8號5樓","No. 223-8, Jinhua St, Da’an District, Taipei City, Taiwan 106",25.029877,121.529397,"永康里"
"7",5007994,"北杰企業有限公司","臺北市南港區忠孝東路7段611號(1樓)","No. 611, Section 7, Zhongxiao E Rd, Nangang District, Taipei City, Taiwan 115",25.0532536,121.6151695,"中南里"
"8",5022812,"亞宙貿易有限公司","臺北市大安區泰順街50巷11號4樓","No. 11, Lane 50, Taishun St, Da’an District, Taipei City, Taiwan 106",25.023123,121.530625,"古風里"
"9",5075182,"博飛實業股份有限公司","臺北市信義區松德路170之7號1樓","No. 170, Songde Rd, Xinyi District, Taipei City, Taiwan 110",25.036314,121.574363,"安康里"
"10",5085203,"寶豐隆興業股份有限公司","臺北市大安區仁愛路4段71巷36號2樓","No. 36, Lane 71, Section 4, Ren'ai Rd, Da’an District, Taipei City, Taiwan 106",25.0400554,121.5471616,"仁愛里"
"11",5099591,"茗陽企業有限公司","臺北市中正區中華路2段75巷1弄7號","No. 7, Alley 1, Lane 75, Section 2, Zhonghua Rd, Zhongzheng District, Taipei City, Taiwan 100",25.0342564,121.5063111,"愛國里"
"12",5184787,"金石堂圖書股份有限公司","臺北市中正區汀州路3段184號1樓之11，12，13，14，15，16，17，18，及192號地下室","No. 184, Section 3, Tingzhou Rd, Zhongzheng District, Taipei City, Taiwan 100",25.0129707,121.5349112,"水源里"
"13",5627615,"金品工藝實業有限公司","臺北市中正區博愛路191巷6號1樓","100, Taiwan, Taipei City, Zhongzheng District, 博愛路191巷6號",25.034511,121.511455,"南門里"
"14",5634377,"老麥攝影文化事業有限公司","臺北市中正區愛國東路76號1樓","No. 76, Aiguo E Rd, Zhongzheng District, Taipei City, Taiwan 100",25.0334706,121.5196722,"新營里"
"15",5643495,"尚洪工程有限公司","臺北市萬華區昆明街34號5樓之2","No. 34, Kunming St, Wanhua District, Taipei City, Taiwan 108",25.0470643,121.5058136,"福星里"
"16",7625199,"迪樂商旅有限公司","臺北市大同區延平北路1段121號","No. 121, Section 1, Yanping N Rd, Datong District, Taipei City, Taiwan 103",25.0528652,121.5119681,"朝陽里"
"17",9419218,"悅創國際科技有限公司","臺北市大安區大安路1段145號2樓","No. 145, Section 1, Da'an Rd, Da’an District, Taipei City, Taiwan 106",25.0382505,121.5462267,"仁愛里"
"18",9491148,"煥承企業有限公司","臺北市士林區文林路287號","No. 287, Wenlin Rd, Shilin District, Taipei City, Taiwan 111",25.091765,121.526074,"仁勇里"
"19",12186184,"喜之軒股份有限公司","臺北市中山區林森北路353巷20號地下室","Lane 353, Linsen N Rd, Zhongshan District, Taipei City, Taiwan 104",25.0570401,121.5261251,"Zhongshan District"
"20",12193538,"群佳股份有限公司","臺北市中山區復興北路86號9樓","No. 86, Fuxing N Rd, Zhongshan District, Taipei City, Taiwan 104",25.0514195,121.5438924,"力行里"
"21",12212970,"永吉殯儀有限公司","臺北市中山區民權東路2段174號","No. 174, Section 2, Minquan E Rd, Zhongshan District, Taipei City, Taiwan 104",25.0621865,121.5355935,"松江里"
"22",12343635,"超德有限公司","臺北市大安區復興南路2段381號12樓之2","No. 381, Section 2, Fuxing S Rd, Da’an District, Taipei City, Taiwan 106",25.022287,121.543666,"臥龍里"
"23",12393873,"伊禮蘭餐廳有限公司","臺北市中山區長春路15號3樓","No. 15, Changchun Rd, Zhongshan District, Taipei City, Taiwan 104",25.0550796,121.5237555,"中山里"
"24",12476661,"美帛企業股份有限公司","臺北市信義區忠孝東路5段669號3樓","No. 669, Section 5, Zhongxiao E Rd, Xinyi District, Taipei City, Taiwan 110",25.042049,121.579627,"永春里"
"25",12555807,"善德殯儀有限公司","臺北市大安區辛亥路3段284巷7號1樓","No. 7, Lane 284, Section 3, Xinhai Rd, Da’an District, Taipei City, Taiwan 106",25.014594,121.551814,"學府里"
"26",12602055,"甜甜圈國際有限公司","臺北市大安區和平東路1段218號6樓","No. 218, Section 1, Heping E Rd, Da’an District, Taipei City, Taiwan 106",25.026109,121.532038,"龍坡里"
"27",12610174,"美聯展覽有限公司","臺北市信義區忠孝東路5段669號3樓","No. 669, Section 5, Zhongxiao E Rd, Xinyi District, Taipei City, Taiwan 110",25.042049,121.579627,"永春里"
"28",12648849,"大正開發事業股份有限公司","臺北市松山區八德路2段374號9樓之1","No. 374, Section 2, Bade Rd, Songshan District, Taipei City, Taiwan 105",25.0478905,121.54564,"中崙里"
"29",12653666,"商業時代文化事業股份有限公司","臺北市大安區羅斯福路３段２６１號５樓","No. 261, Section 3, Roosevelt Rd, Da’an District, Taipei City, Taiwan 106",25.0189859,121.530342,"大學里"
"30",12655209,"朋達開發股份有限公司","臺北市信義區永吉路278巷27弄28號1樓","No. 28, Alley 27, Lane 278, Yongji Rd, Xinyi District, Taipei City, Taiwan 110",25.044478,121.57498,"五全里"
"31",12658326,"四維國際殯儀有限公司","臺北市中山區民權東路２段１７４號２樓","No. 174, Section 2, Minquan E Rd, Zhongshan District, Taipei City, Taiwan 104",25.0621865,121.5355935,"松江里"
"32",12665240,"博捷視覺設計有限公司","臺北市大同區寧夏路107號1樓","No. 107, Ningxia Rd, Datong District, Taipei City, Taiwan 103",25.0598549,121.5148019,"民權里"
"33",12669007,"國聯實業股份有限公司","臺北市中山區建國北路２段３３號１５樓之２","No. 33, Section 2, Jianguo N Rd, Zhongshan District, Taipei City, Taiwan 104",25.0550136,121.5373028,"朱馥里"
"34",12674851,"派對貿易有限公司","臺北市士林區中山北路5段529號1樓","No. 529, Section 5, Zhongshan N Rd, Shilin District, Taipei City, Taiwan 111",25.0941479,121.5278467,"福林里"
"35",12678596,"摩太創意開發有限公司","臺北市大安區忠孝東路4段216巷27弄4號1樓403室","No. 4, Alley 27, Lane 216, Section 4, Zhongxiao E Rd, Da’an District, Taipei City, Taiwan 106",25.0398317,121.5532545,"車層里"
"36",12680191,"妙點電商股份有限公司","臺北市萬華區和平西路３段３１２號３樓","No. 312, Section 3, Heping W Rd, Wanhua District, Taipei City, Taiwan 108",25.0352907,121.4928861,"華江里"
"37",12683303,"泛維心生物科技有限公司","臺北市信義區信義路５段５號","No. 5, Section 5, Xinyi Rd, Xinyi District, Taipei City, Taiwan 110",25.0332591,121.562324,"西村里"
"38",12686391,"永生禮儀有限公司","臺北市中山區農安街277號2樓之1","No. 277, Nong'an St, Zhongshan District, Taipei City, Taiwan 104",25.0648628,121.5362557,"行政里"
"39",12687125,"博利特公關顧問有限公司","臺北市信義區松德路12號9樓","No. 12, Songde Rd, Xinyi District, Taipei City, Taiwan 110",25.0397253,121.5774188,"廣居里"
"40",12687526,"弘格旅館規劃設計顧問有限公司","臺北市中山區松江路200號11樓之5","No. 200, Songjiang Rd, Zhongshan District, Taipei City, Taiwan 104",25.0573022,121.5328316,"中吉里"
"41",12693007,"普洛達數位科技有限公司","臺北市中山區中山北路2段27巷2號6樓之6","No. 2, Lane 27, Section 2, Zhongshan N Rd, Zhongshan District, Taipei City, Taiwan 104",25.053162,121.5231827,"康樂里"
"42",12715065,"耀陽創意整合行銷有限公司","臺北市中山區中山北路3段45號4樓之7","No. 45, Section 3, Zhongshan N Rd, Zhongshan District, Taipei City, Taiwan 104",25.066535,121.5225292,"晴光里"
"43",12755896,"劦虹昌音響有限公司","臺北市萬華區洛陽街55號6樓之2","No. 55, Luoyang St, Wanhua District, Taipei City, Taiwan 108",25.047638,121.508192,"福星里"
"44",12772109,"笙雅生活科技股份有限公司","臺北市中山區民權東路3段25號2樓","No. 25, Section 3, Minquan E Rd, Zhongshan District, Taipei City, Taiwan 104",25.062562,121.5418061,"下埤里"
"45",12797615,"禾米國際股份有限公司","臺北市信義區光復南路473巷11弄40號4樓之3","No. 40, Alley 11, Lane 473, Guangfu S Rd, Xinyi District, Taipei City, Taiwan 110",25.0339564,121.5594928,"中興里"
"46",12852659,"黎濱堡股份有限公司","臺北市松山區民生東路4段131巷21號","No. 21, Lane 131, Section 4, Minsheng E Rd, Songshan District, Taipei City, Taiwan 105",25.0592315,121.5535181,"精忠里"
"47",12853931,"大正殯儀服務有限公司","臺北市大同區華陰街４５號","No. 45, Huayin St, Datong District, Taipei City, Taiwan 103",25.0494237,121.5191418,"建明里"
"48",12855065,"賢影有限公司","臺北市大安區延吉街259-1號","No. 259-1, Yanji St, Da’an District, Taipei City, Taiwan 106",25.0343973,121.5567628,"光信里"
"49",12856424,"瑟夫國際有限公司","臺北市松山區八德路４段２７７號６樓","No. 277, Section 4, Bade Rd, Songshan District, Taipei City, Taiwan 105",25.04914,121.5657727,"新聚里"
"50",12857325,"天成開發股份有限公司","臺北市中正區忠孝西路1段41號5樓之16","No. 41, Section 1, Zhongxiao W Rd, Zhongzheng District, Taipei City, Taiwan 100",25.046302,121.518464,"黎明里"
"51",12871086,"品華開發股份有限公司","臺北市中正區忠孝西路1段43號2樓","No. 43, Section 1, Zhongxiao W Rd, Zhongzheng District, Taipei City, Taiwan 100",25.0462216,121.518139,"黎明里"
"52",12872156,"福爾摩沙影像有限公司","臺北市大安區建國南路2段73號","No. 73, Section 2, Jianguo S Rd, Da’an District, Taipei City, Taiwan 106",25.0311106,121.5381862,"龍圖里"
"53",12872655,"遠上觀花藝設計有限公司","臺北市北投區明德路22號1樓","No. 22, Mingde Rd, Beitou District, Taipei City, Taiwan 112",25.1070491,121.5176935,"建民里"
"54",12873113,"賽特資訊服務股份有限公司","臺北市大安區敦化南路2段105號12樓","No. 105, Section 2, Dunhua S Rd, Da’an District, Taipei City, Taiwan 106",25.0284459,121.549215,"義安里"
"55",12874176,"藝元素製作有限公司","臺北市信義區基隆路1段155號13樓之5","No. 155, Section 1, Keelung Rd, Xinyi District, Taipei City, Taiwan 110",25.042178,121.565396,"興雅里"
"56",12875386,"雙緁有限公司","臺北市信義區虎林街212巷39號1樓","No. 39, Lane 212, Hulin St, Xinyi District, Taipei City, Taiwan 110",25.036972,121.576133,"國業里"
"57",12875631,"前辰國際管理顧問有限公司","臺北市大安區忠孝東路4段220號13樓","No. 220, Section 4, Zhongxiao E Rd, Da’an District, Taipei City, Taiwan 106",25.041149,121.553232,"車層里"
"58",12933344,"萊閣國際股份有限公司","臺北市大安區敦化南路2段57號9樓","No. 57, Section 2, Dunhua S Rd, Da’an District, Taipei City, Taiwan 106",25.0311548,121.5491859,"義安里"
"59",12941560,"星辰人力仲介股份有限公司","臺北市中正區忠孝西路１段４１號６樓之１","No. 41, Section 1, Zhongxiao W Rd, Zhongzheng District, Taipei City, Taiwan 100",25.046302,121.518464,"黎明里"
"60",12941870,"廣豐祭祀用品有限公司","臺北市大安區辛亥路3段157巷24弄23號1樓","No. 23, Alley 24, Lane 157, Section 3, Xinhai Rd, Da’an District, Taipei City, Taiwan 106",25.0172702,121.5503315,"黎元里"
"61",12943384,"耀威整合行銷顧問有限公司","臺北市大安區樂利路９１號地下樓","Leli Rd, Da’an District, Taipei City, Taiwan 106",25.0270872,121.5515162,"Taipei City"
"62",12943574,"崴勝開發有限公司","臺北市中山區民生東路2段115巷4號5樓","No. 4, Lane 115, Section 2, Minsheng E Rd, Zhongshan District, Taipei City, Taiwan 104",25.0583969,121.5314459,"中庄里"
"63",12948944,"電週文化事業股份有限公司","臺北市大安區敦化南路2段105號12樓","No. 105, Section 2, Dunhua S Rd, Da’an District, Taipei City, Taiwan 106",25.0284459,121.549215,"義安里"
"64",12949325,"泰鍋有限公司","臺北市大安區敦化南路１段１７７巷１０號１樓","No. 10, Lane 177, Section 1, Dunhua S Rd, Da’an District, Taipei City, Taiwan 106",25.0429506,121.5497645,"建安里"
"65",12950151,"鋒龍實業有限公司","臺北市士林區天母北路３２號２樓","No. 32, Tianmu N Rd, Shilin District, Taipei City, Taiwan 111",25.1200413,121.5263237,"天玉里"
"66",12953122,"江浙天成樓開發股份有限公司","臺北市中正區忠孝西路1段41號5樓之4","No. 41, Section 1, Zhongxiao W Rd, Zhongzheng District, Taipei City, Taiwan 100",25.046302,121.518464,"黎明里"
"67",12953235,"慈元國際有限公司","臺北市大安區羅斯福路3段65號3樓","No. 65, Section 3, Roosevelt Rd, Da’an District, Taipei City, Taiwan 106",25.022938,121.52597,"古莊里"
"68",12954375,"方禾開發股份有限公司","臺北市大安區敦化南路１段２６３號５樓之１","No. 263, Section 1, Dunhua S Rd, Da’an District, Taipei City, Taiwan 106",25.036596,121.549345,"敦安里"
"69",12956985,"樺納國際有限公司","臺北市松山區長春路500號1樓","No. 500, Changchun Rd, Songshan District, Taipei City, Taiwan 105",25.0543425,121.547544,"中正里"
"70",12958576,"電波戰國企業有限公司","臺北市萬華區長沙街2段89號15樓之1","No. 89, Section 2, Changsha St, Wanhua District, Taipei City, Taiwan 108",25.040561,121.504813,"新起里"
"71",12962065,"湯普攝影有限公司","臺北市松山區南京東路5段158號","No. 158, Section 5, Nanjing E Rd, Songshan District, Taipei City, Taiwan 105",25.0512147,121.5630733,"吉祥里"
"72",12962109,"協成殯葬有限公司","臺北市南港區南港路3段256巷27號","No. 27, Lane 256, Section 3, Nangang Rd, Nangang District, Taipei City, Taiwan 115",25.0527265,121.5834929,"玉成里"
"73",12962500,"紫雲國際股份有限公司","臺北市中山區敬業三路11號","No. 11, Jingye 3rd Rd, Zhongshan District, Taipei City, Taiwan 104",25.0835796,121.5556526,"Zhongshan District"
"74",12963183,"台安殯儀有限公司","臺北市中山區建國北路3段16號","No. 16, Section 3, Jianguo N Rd, Zhongshan District, Taipei City, Taiwan 104",25.0636141,121.5366764,"行政里"
"75",12963563,"藝見傳播有限公司","臺北市中正區汀州路2段259號1樓","No. 259, Section 2, Tingzhou Rd, Zhongzheng District, Taipei City, Taiwan 100",25.0227856,121.5235226,"頂東里"
"76",12964789,"星勢力娛樂股份有限公司","臺北市松山區東興路28號7樓","No. 28, Dongxing Rd, Songshan District, Taipei City, Taiwan 105",25.0486867,121.5654013,"復盛里"
"77",12964958,"千園文化事業有限公司","臺北市大安區光復南路４２０巷１號２樓","No. 1, Lane 420, Guangfu S Rd, Da’an District, Taipei City, Taiwan 106",25.0363951,121.5570573,"光信里"
"78",12968125,"尊榮國際開發股份有限公司","臺北市士林區承德路４段１０巷５３號２樓","No. 53, Lane 10, Section 4, Chengde Rd, Shilin District, Taipei City, Taiwan 111",25.0805047,121.5196562,"明勝里"
"79",12969573,"宙斯行銷有限公司","臺北市中正區中華路2段75巷1弄33號","No. 33, Alley 1, Lane 75, Section 2, Zhonghua Rd, Zhongzheng District, Taipei City, Taiwan 100",25.034858,121.5066838,"愛國里"
"80",12971120,"翔飛股份有限公司","臺北市士林區通河東街1段105巷1號3樓","111, Taiwan, Taipei City, Shilin District, 通河東街一段105巷1號",25.0852675,121.5160776,"福中里"
"81",12973443,"名媛婚紗攝影有限公司","臺北市中山區中山北路３段５７號１、２樓","No. 57, Section 3, Zhongshan N Rd, Zhongshan District, Taipei City, Taiwan 104",25.0682475,121.5230914,"圓山里"
"82",12973577,"慈雲管理顧問有限公司","臺北市中山區民權東路2段133號2樓","No. 133, Section 2, Minquan E Rd, Zhongshan District, Taipei City, Taiwan 104",25.0627026,121.5348817,"行政里"
"83",12976618,"桑斯伯國際有限公司","臺北市中正區汀州路3段44號1樓","No. 44, Section 3, Tingzhou Rd, Zhongzheng District, Taipei City, Taiwan 100",25.016023,121.530624,"富水里"
"84",12977243,"山基通路科技股份有限公司","臺北市大同區承德路１段１７號１８樓","No. 17, Section 1, Chengde Rd, Datong District, Taipei City, Taiwan 103",25.0500839,121.5170461,"建明里"
"85",12978192,"利誠餐飲有限公司","臺北市內湖區民權東路6段469號、471號、471號2樓","No. 469, Section 6, Minquan E Rd, Neihu District, Taipei City, Taiwan 114",25.0719734,121.6045051,"金湖里"
"86",12978382,"太虛天數運籌有限公司","臺北市松山區南京東路３段３４６號９樓之１Ｏ","No. 346, Section 3, Nanjing E Rd, Songshan District, Taipei City, Taiwan 105",25.0515802,121.5480716,"中正里"
"87",12978968,"台北麗緻影像有限公司","臺北市中山區中山北路２段１５８號１樓","No. 158, Section 2, Zhongshan N Rd, Zhongshan District, Taipei City, Taiwan 104",25.0630282,121.5223465,"集英里"
"88",13036403,"利檬企業有限公司","臺北市松山區光復南路46巷8號1樓","No. 8, Lane 46, Guangfu S Rd, Songshan District, Taipei City, Taiwan 105",25.0459941,121.5569952,"復建里"
"89",13057954,"向日葵整合行銷傳播有限公司","臺北市松山區八德路4段106巷6弄1號1樓","No. 1, Alley 6, Lane 106, Section 4, Bade Rd, Songshan District, Taipei City, Taiwan 105",25.047257,121.561027,"復盛里"
"90",13084848,"超級娛樂有限公司","臺北市中山區林森北路159巷28號1樓","No. 28, Lane 159, Linsen N Rd, Zhongshan District, Taipei City, Taiwan 104",25.05154,121.526142,"正義里"
"91",13085163,"吉家開發興業有限公司","臺北市信義區忠孝東路5段1之3號8樓","No. 1-3, Section 5, Zhongxiao E Rd, Xinyi District, Taipei City, Taiwan 110",25.0414649,121.56494,"興雅里"
"92",13086276,"森羅萬象實業有限公司","臺北市萬華區和平西路３段３７０號１樓","No. 370, Section 3, Heping W Rd, Wanhua District, Taipei City, Taiwan 108",25.0353241,121.4918648,"華江里"
"93",13098110,"崴騰開發有限公司","臺北市中山區民生東路2段115巷4號5樓","No. 4, Lane 115, Section 2, Minsheng E Rd, Zhongshan District, Taipei City, Taiwan 104",25.0583969,121.5314459,"中庄里"
"94",13098420,"花漾館花藝禮品有限公司","臺北市文山區木柵路３段４８巷１弄９號１樓","No. 9, Alley 1, Lane 48, Section 3, Muzha Rd, Wenshan District, Taipei City, Taiwan 116",24.9878149,121.564869,"木柵里"
"95",13101852,"上銀全通電訊股份有限公司","臺北市中山區南京東路1段46號4樓","No. 46, Section 1, Nanjing E Rd, Zhongshan District, Taipei City, Taiwan 104",25.0519526,121.5244071,"正得里"
"96",13103752,"瑞古實業有限公司","臺北市中正區羅斯福路1段36號8樓之2","No. 36, Section 1, Roosevelt Rd, Zhongzheng District, Taipei City, Taiwan 100",25.0312462,121.5191264,"南福里"
"97",13103964,"樂利國際有限公司","臺北市大安區安和路１段４９巷２１號２樓","No. 21, Lane 49, Section 1, Anhe Rd, Da’an District, Taipei City, Taiwan 106",25.038588,121.5525615,"建倫里"
"98",13104078,"瑞樂國際開發有限公司","臺北市大安區樂利路11巷32號1樓","No. 32, Lane 11, Leli Rd, Da’an District, Taipei City, Taiwan 106",25.0283064,121.5524839,"法治里"
"99",13104268,"富維蓄股份有限公司","臺北市大同區市民大道1段209號11樓之1","No. 209, Section 1, Civic Blvd, Datong District, Taipei City, Taiwan 103",25.0487857,121.518569,"建明里"
"100",13112529,"甘泉國際事業有限公司","臺北市中正區南昌路1段11號2樓","No. 11, Section 1, Nanchang Rd, Zhongzheng District, Taipei City, Taiwan 100",25.0321695,121.5166746,"龍福里"
"101",13113267,"恆囍食品有限公司","臺北市信義區忠孝東路5段297號4樓","No. 297, Section 5, Zhongxiao E Rd, Xinyi District, Taipei City, Taiwan 110",25.0412225,121.5733244,"富台里"
"102",13113914,"宏生生命事業有限公司","臺北市中山區德惠街163號1樓","No. 163, Dehui St, Zhongshan District, Taipei City, Taiwan 104",25.0666481,121.5313864,"新喜里"
"103",13114152,"克麗比努爾傢飾有限公司","臺北市大安區大安路1段169巷8號","No. 8, Lane 169, Section 1, Da'an Rd, Da’an District, Taipei City, Taiwan 106",25.036771,121.5467112,"德安里"
"104",13115363,"畢希斯多媒體設計有限公司","臺北市大安區信義路3段200號6樓之1","No. 200, Section 3, Xinyi Rd, Da’an District, Taipei City, Taiwan 106",25.0331896,121.5434075,"龍圖里"
"105",13117799,"麥克思廣告有限公司","臺北市信義區信義路４段３７５號４樓之５","No. 375, Section 4, Xinyi Rd, Xinyi District, Taipei City, Taiwan 110",25.0333208,121.5577533,"中興里"
"106",13121359,"愛馨事業有限公司","臺北市大安區麗水街8號1樓","No. 8, Lishui St, Da’an District, Taipei City, Taiwan 106",25.0327722,121.5290174,"永康里"
"107",13125165,"采晨國際股份有限公司","臺北市大安區忠孝東路4段216巷55號","No. 55, Lane 216, Section 4, Zhongxiao E Rd, Da’an District, Taipei City, Taiwan 106",25.0386678,121.5530931,"車層里"
"108",13127810,"發言平台創意整合有限公司","臺北市中山區吉林路404號","No. 404, Jilin Rd, Zhongshan District, Taipei City, Taiwan 104",25.0654531,121.5302015,"新庄里"
"109",13131574,"欣芳殯儀有限公司","臺北市中山區德惠街175號1樓","No. 175, Dehui St, Zhongshan District, Taipei City, Taiwan 104",25.066655,121.5319681,"新喜里"
"110",13131589,"和和生命事業有限公司","臺北市中山區民權東路2段135巷19號1樓","No. 19, Lane 135, Section 2, Minquan E Rd, Zhongshan District, Taipei City, Taiwan 104",25.0639652,121.5351656,"行政里"
"111",13133518,"聞甜芒果有限公司","臺北市文山區興隆路4段105巷29號地下之12","No. 29, Lane 105, Section 4, Xinglong Rd, Wenshan District, Taipei City, Taiwan 116",24.987819,121.561889,"明義里"
"112",13135972,"雅亭軒生活資訊顧問有限公司","臺北市信義區嘉興街309號1樓","No. 309, Jiaxing St, Xinyi District, Taipei City, Taiwan 110",25.023284,121.5546763,"黎平里"
"113",13136108,"求窈工房婚紗禮服有限公司","臺北市大安區安和路2段5號2樓","No. 5, Section 2, Anhe Rd, Da’an District, Taipei City, Taiwan 106",25.0328711,121.5526624,"通安里"
"114",13138372,"東琳國際開發有限公司","臺北市中山區長安東路2段169之6號5樓之3","No. 169, Section 2, Chang'an E Rd, Zhongshan District, Taipei City, Taiwan 104",25.048551,121.5407856,"Zhongshan District"
"115",13141257,"形策國際設計顧問股份有限公司","臺北市大安區忠孝東路4段181巷10弄17號2樓","No. 17, Alley 10, Lane 181, Section 4, Zhongxiao E Rd, Da’an District, Taipei City, Taiwan 106",25.0422117,121.5499221,"建安里"
"116",16015514,"信誼創新整合有限公司","臺北市松山區民權東路5段27號2樓","No. 27, Section 5, Minquan E Rd, Songshan District, Taipei City, Taiwan 105",25.0634979,121.5663517,"莊敬里"
"117",16053967,"良運運通有限公司","臺北市內湖區民權東路6段56巷17號1樓","No. 17, Lane 56, Section 6, Minquan E Rd, Neihu District, Taipei City, Taiwan 114",25.0677945,121.5852956,"湖元里"
"118",16149984,"耐時企業有限公司","臺北市大同區延平北路2段240之1號","No. 240-1, Section 2, Yanping N Rd, Datong District, Taipei City, Taiwan 103",25.059942,121.511218,"大有里"
"119",16178713,"圓得實業開發有限公司","臺北市松山區民族東路743號1樓","No. 743, Minzu E Rd, Songshan District, Taipei City, Taiwan 105",25.0627639,121.5494043,"民福里"
"120",16191048,"非常文化事業有限公司","臺北市中正區重慶南路1段10號9樓","No. 10, Section 1, Chongqing S Rd, Zhongzheng District, Taipei City, Taiwan 100",25.0466091,121.5131111,"光復里"
"121",16281174,"銘望實業有限公司","臺北市松山區南京東路4段11號4樓","No. 11, Section 4, Nanjing E Rd, Songshan District, Taipei City, Taiwan 105",25.0519794,121.5497353,"中華里"
"122",16281771,"元凡實業有限公司","臺北市大同區南京西路36號10樓","No. 36, Nanjing W Rd, Datong District, Taipei City, Taiwan 103",25.0526618,121.5196088,"建泰里"
"123",16285973,"仁人物業管理顧問股份有限公司","臺北市中山區南京東路2段76號4樓","No. 76, Section 2, Nanjing E Rd, Zhongshan District, Taipei City, Taiwan 104",25.0517998,121.5310177,"興亞里"
"124",16296628,"競合國際行銷股份有限公司","臺北市松山區復興北路369號4樓","No. 369, Fuxing N Rd, Songshan District, Taipei City, Taiwan 105",25.0626001,121.5447579,"民福里"
"125",16297020,"珮容國際事業有限公司","臺北市松山區南京東路5段230號15樓之6","No. 230, Section 5, Nanjing E Rd, Songshan District, Taipei City, Taiwan 105",25.051002,121.5657026,"新聚里"
"126",16300637,"詢价科技股份有限公司","臺北市大安區東豐街66號3樓","No. 66, Dongfeng St, Da’an District, Taipei City, Taiwan 106",25.0359153,121.5478601,"德安里"
"127",16303120,"星<U+8846>廣告事業有限公司","臺北市信義區莊敬路391巷2弄12號1樓","No. 12, Alley 2, Lane 391, Zhuangjing Rd, Xinyi District, Taipei City, Taiwan 110",25.0276379,121.566123,"三張里"
"128",16305078,"億鼎有限公司","臺北市松山區東興路12號2樓","No. 12, Dongxing Rd, Songshan District, Taipei City, Taiwan 105",25.049908,121.565134,"新聚里"
"129",16307097,"泉鼎企業有限公司","臺北市北投區西安街1段367號4樓","No. 367, Section 1, Xi'an St, Beitou District, Taipei City, Taiwan 112",25.1146144,121.5149909,"榮光里"
"130",16310522,"丹瑞設計有限公司","臺北市中正區中華路２段７５巷１７號５樓之６","No. 17, Lane 75, Section 2, Zhonghua Rd, Zhongzheng District, Taipei City, Taiwan 100",25.033771,121.50694,"愛國里"
"131",16319544,"甲子服裝有限公司","臺北市大安區忠孝東路4段7號1樓","No. 7, Section 4, Zhongxiao E Rd, Da’an District, Taipei City, Taiwan 106",25.041883,121.544274,"光武里"
"132",16325969,"亞仕商國際股份有限公司","臺北市中山區松江路87號10樓之2","No. 87, Songjiang Rd, Zhongshan District, Taipei City, Taiwan 104",25.050276,121.533304,"朱園里"
"133",16348724,"台灣形象力有限公司","臺北市中正區汀州路2段240號","No. 240, Section 2, Tingzhou Rd, Zhongzheng District, Taipei City, Taiwan 100",25.02173,121.5244574,"河堤里"
"134",16377608,"紘達國際開發有限公司","臺北市中山區新生北路2段29之1號地下層",NA,NA,NA,NA
"135",16584016,"寶吉祥有限公司","臺北市信義區松仁路89號14樓之2及之3","No. 89, Songren Rd, Xinyi District, Taipei City, Taiwan 110",25.0369682,121.5687031,"安康里"
"136",16591591,"文華國際花苑有限公司","臺北市大安區延吉街131巷47號","No. 47, Lane 131, Yanji St, Da’an District, Taipei City, Taiwan 106",25.0432407,121.5553555,"華聲里"
"137",16593922,"新隆城開發股份有限公司","臺北市松山區八德路4段686號11樓之3","No. 686, Section 4, Bade Rd, Songshan District, Taipei City, Taiwan 105",25.0499762,121.576762,"慈祐里"
"138",16603528,"珮<U+5586>管理顧問有限公司","臺北市松山區復興北路１號１４樓之７","No. 1, Fuxing N Rd, Songshan District, Taipei City, Taiwan 105",25.0480218,121.5443569,"中正里"
"139",16606102,"網路家庭國際資訊股份有限公司","臺北市大安區敦化南路2段105號12樓","No. 105, Section 2, Dunhua S Rd, Da’an District, Taipei City, Taiwan 106",25.0284459,121.549215,"義安里"
"140",16614905,"聯邦網通科技股份有限公司","臺北市松山區民生東路3段109號10樓","No. 109, Section 3, Minsheng E Rd, Songshan District, Taipei City, Taiwan 105",25.0581445,121.5452296,"民有里"
"141",16615475,"益鴻企業有限公司","臺北市中山區民權東路2段135巷19號1樓","No. 19, Lane 135, Section 2, Minquan E Rd, Zhongshan District, Taipei City, Taiwan 104",25.0639652,121.5351656,"行政里"
"142",16626923,"承亞廣告有限公司","臺北市內湖區成功路5段400號13樓之2","No. 400, Section 5, Chenggong Rd, Neihu District, Taipei City, Taiwan 114",25.0761932,121.6074958,"金湖里"
"143",16630546,"陳氏獵人國際徵信有限公司","臺北市松山區八德路4段306號2樓","No. 306, Section 4, Bade Rd, Songshan District, Taipei City, Taiwan 105",25.0489857,121.5673986,"新聚里"
"144",16752786,"快樂訊息傳播事業有限公司","臺北市大同區民生西路98號4樓","No. 98, Minsheng W Rd, Datong District, Taipei City, Taiwan 103",25.057418,121.5199052,"光能里"
"145",16753808,"山基電信股份有限公司","臺北市大同區承德路１段１７號１８樓","No. 17, Section 1, Chengde Rd, Datong District, Taipei City, Taiwan 103",25.0500839,121.5170461,"建明里"
"146",16755101,"飛力雅國際公關顧問股份有限公司","臺北市信義區基隆路2段51號7樓之5","No. 51, Section 2, Keelung Rd, Xinyi District, Taipei City, Taiwan 110",25.0309403,121.5585445,"景聯里"
"147",16755762,"明彤企業有限公司","臺北市文山區福興路63巷4弄26號","No. 26, Alley 4, Lane 63, Fuxing Rd, Wenshan District, Taipei City, Taiwan 116",25.0044909,121.549245,"興旺里"
"148",16760358,"善得事業股份有限公司","臺北市大安區復興南路2段237號10樓之15","No. 237, Section 2, Fuxing S Rd, Da’an District, Taipei City, Taiwan 106",25.026013,121.543826,"群賢里"
"149",16763159,"億通智慧科技股份有限公司","臺北市松山區南京東路5段213號4樓之1","No. 213, Section 5, Nanjing E Rd, Songshan District, Taipei City, Taiwan 105",25.051614,121.56405,"安平里"
"150",16764158,"煌欣企業有限公司","臺北市中正區詔安街26巷6號1樓","No. 6, Lane 26, Zhaoan St, Zhongzheng District, Taipei City, Taiwan 100",25.0248339,121.515757,"螢雪里"
"151",16765537,"英鳴國際科技股份有限公司","臺北市信義區基隆路2段189號14樓之11","No. 189, Section 2, Keelung Rd, Xinyi District, Taipei City, Taiwan 110",25.0248813,121.5534255,"黎順里"
"152",16770573,"豐園音響事業有限公司","臺北市信義區忠孝東路５段３６８號２樓","No. 368, Section 5, Zhongxiao E Rd, Xinyi District, Taipei City, Taiwan 110",25.040717,121.573891,"廣居里"
"153",16781614,"克麗比努爾國際有限公司","臺北市內湖區行愛路141巷18號","No. 18, Lane 141, Xingai Rd, Neihu District, Taipei City, Taiwan 114",25.0647376,121.5805774,"湖元里"
"154",16783373,"<U+945B>臻往生殯儀有限公司","臺北市大安區辛亥路3段157巷24弄22號","No. 22, Alley 24, Lane 157, Section 3, Xinhai Rd, Da’an District, Taipei City, Taiwan 106",25.0174229,121.5501536,"黎元里"
"155",16786717,"鉅豐殯儀服務有限公司","臺北市大安區辛亥路3段157巷12弄32號","No. 32, Alley 12, Lane 157, Section 3, Xinhai Rd, Da’an District, Taipei City, Taiwan 106",25.0169487,121.550608,"黎元里"
"156",16789361,"玖達禮儀禮品有限公司","臺北市大安區辛亥路3段157巷24弄23號1樓","No. 23, Alley 24, Lane 157, Section 3, Xinhai Rd, Da’an District, Taipei City, Taiwan 106",25.0172702,121.5503315,"黎元里"
"157",16793674,"阿波羅婚紗攝影有限公司","臺北市中山區中山北路２段１１８號","No. 118, Section 2, Zhongshan N Rd, Zhongshan District, Taipei City, Taiwan 104",25.0610385,121.5227332,"集英里"
"158",16794630,"永潤禮儀有限公司","臺北市中山區民權東路2段113巷1弄13號1樓",NA,NA,NA,NA
"159",16799115,"台灣富力通開發有限公司","臺北市中正區忠孝西路1段50號18樓之36","No. 50, Section 1, Zhongxiao W Rd, Zhongzheng District, Taipei City, Taiwan 100",25.0459693,121.5158461,"黎明里"
"160",16863755,"玉鼎國際實業有限公司","臺北市大安區仁愛路４段３４５巷４弄２９號１樓","No. 29, Alley 4, Lane 345, Section 4, Ren'ai Rd, Da’an District, Taipei City, Taiwan 106",25.0390729,121.5521776,"建倫里"
"161",20523701,"中泰賓館股份有限公司","臺北市松山區敦化北路150號10樓","No. 150, Dunhua N Rd, Songshan District, Taipei City, Taiwan 105",25.054555,121.548452,"松基里"
"162",20737561,"興南建設股份有限公司","臺北市內湖區新湖一路128巷15號7樓","No. 15, Lane 128, Xinhu 1st Rd, Neihu District, Taipei City, Taiwan 114",25.0598628,121.5772745,"湖元里"
"163",20913052,"圓璦婚禮顧問有限公司","臺北市信義區忠孝東路5段386號9樓","No. 386, Section 5, Zhongxiao E Rd, Xinyi District, Taipei City, Taiwan 110",25.040764,121.574124,"廣居里"
"164",22021319,"秀林資訊服務有限公司","臺北市信義區基隆路１段４３２號５樓之６","No. 432, Section 1, Keelung Rd, Xinyi District, Taipei City, Taiwan 110",25.0337029,121.559678,"中興里"
"165",22198759,"重驊企業有限公司","臺北市大安區和平東路２段２３１號２樓","No. 231, Section 2, Heping E Rd, Da’an District, Taipei City, Taiwan 106",25.0250667,121.543201,"龍生里"
"166",22298119,"永誠事業有限公司","臺北市松山區南京東路4段103號7樓之3","No. 103, Section 4, Nanjing E Rd, Songshan District, Taipei City, Taiwan 105",25.0518777,121.5545346,"東勢里"
"167",22352437,"新世紀傳播有限公司","臺北市大安區忠孝東路4段2號5樓之1","No. 2, Section 4, Zhongxiao E Rd, Da’an District, Taipei City, Taiwan 106",25.0412656,121.5440075,"仁愛里"
"168",22415496,"龍巖股份有限公司","臺北市中山區民權東路2段166號1樓","No. 166, Section 2, Minquan E Rd, Zhongshan District, Taipei City, Taiwan 104",25.0621883,121.5354718,"松江里"
"169",22658401,"凱<U+4E98>股份有限公司","臺北市大安區忠孝東路4段166號5樓之1","No. 166, Section 4, Zhongxiao E Rd, Da’an District, Taipei City, Taiwan 106",25.0412922,121.5505679,"建倫里"
"170",22693553,"兆峰國際租賃有限公司","臺北市中山區長春路172號8樓之9","No. 172, Changchun Rd, Zhongshan District, Taipei City, Taiwan 104",25.05458,121.533823,"中央里"
"171",22718484,"台灣藝能工程股份有限公司","臺北市中山區民生東路2段170號4樓","No. 170, Section 2, Minsheng E Rd, Zhongshan District, Taipei City, Taiwan 104",25.0577109,121.5350815,"中央里"
"172",22757612,"鼎國工程設計股份有限公司","臺北市中山區松江路70巷3號5樓","No. 3, Lane 70, Songjiang Rd, Zhongshan District, Taipei City, Taiwan 104",25.0495219,121.5325282,"興亞里"
"173",23045057,"奇唯科技股份有限公司","臺北市中山區民生東路2段149號8樓","No. 149, Section 2, Minsheng E Rd, Zhongshan District, Taipei City, Taiwan 104",25.058166,121.5352974,"松江里"
"174",23054386,"邁思設計顧問有限公司","臺北市中山區松江路63巷8號5樓","No. 8, Lane 63, Songjiang Rd, Zhongshan District, Taipei City, Taiwan 104",25.0489072,121.5340245,"朱園里"
"175",23156341,"水沙蓮休閒渡假村興業實業股份有限公司","臺北市大安區敦化南路2段5號10樓之4","No. 5, Section 2, Dunhua S Rd, Da’an District, Taipei City, Taiwan 106",25.03279,121.549253,"義安里"
"176",23159656,"蘇航企業股份有限公司","臺北市萬華區環河南路３段１７３號１樓","No. 173, Section 3, Huanhe S Rd, Wanhua District, Taipei City, Taiwan 108",25.022422,121.491945,"孝德里"
"177",23316591,"高宇興業有限公司","臺北市文山區忠順街2段90巷28號地下1樓","Lane 90, Section 2, Zhongshun St, Wenshan District, Taipei City, Taiwan 116",24.9840472,121.5648038,"Wenshan District"
"178",23325368,"台灣蜜納國際股份有限公司","臺北市中山區南京東路2段8號5樓","No. 8, Section 2, Nanjing E Rd, Zhongshan District, Taipei City, Taiwan 104",25.0517942,121.5287042,"興亞里"
"179",23443941,"百生興業有限公司","臺北市大同區延平北路2段61巷7號1樓","No. 7, Lane 61, Section 2, Yanping N Rd, Datong District, Taipei City, Taiwan 103",25.0555436,121.512017,"朝陽里"
"180",23447756,"台興企管顧問有限公司","臺北市中正區忠孝東路1段152號10樓之6","No. 152, Section 1, Zhongxiao E Rd, Zhongzheng District, Taipei City, Taiwan 100",25.043997,121.5258103,"幸福里"
"181",23465254,"高邦國際開發有限公司","臺北市大同區塔城街7號11樓之3","No. 7, Tacheng St, Datong District, Taipei City, Taiwan 103",25.0506268,121.51069,"玉泉里"
"182",23598120,"蓮風企業有限公司","臺北市大安區辛亥路3段157巷22弄3號1樓","No. 3, Alley 22, Lane 157, Section 3, Xinhai Rd, Da’an District, Taipei City, Taiwan 106",25.0178057,121.5500512,"黎元里"
"183",23607681,"重耀工程顧問股份有限公司","臺北市信義區信義路4段415號2樓之1","No. 415, Section 4, Xinyi Rd, Xinyi District, Taipei City, Taiwan 110",25.0333249,121.5593752,"中興里"
"184",23615486,"力麗觀光開發股份有限公司","臺北市中山區松江路162號3樓","No. 162, Songjiang Rd, Zhongshan District, Taipei City, Taiwan 104",25.0553841,121.5327937,"中吉里"
"185",23621918,"飛門企業有限公司","臺北市大同區南京西路107巷8號","No. 8, Lane 107, Nanjing W Rd, Datong District, Taipei City, Taiwan 103",25.054303,121.5156661,"星明里"
"186",23721753,"閃耀實業有限公司","臺北市北投區中央北路4段292號(1樓)","No. 292, Section 4, Zhongyang N Rd, Beitou District, Taipei City, Taiwan 112",25.1313821,121.4731071,"一德里"
"187",23730508,"圓桌會議顧問股份有限公司","臺北市信義區忠孝東路5段669號9樓之2","No. 669, Section 5, Zhongxiao E Rd, Xinyi District, Taipei City, Taiwan 110",25.042049,121.579627,"永春里"
"188",23767201,"蘇菲雅婚紗攝影有限公司","臺北市中山區中山北路2段66號1樓","No. 66, Section 2, Zhongshan N Rd, Zhongshan District, Taipei City, Taiwan 104",25.0568369,121.5225973,"民安里"
"189",23886760,"崇贏實業股份有限公司","臺北市北投區尊賢街218巷42號1樓","No. 42, Lane 218, Zunxian St, Beitou District, Taipei City, Taiwan 112",25.1163984,121.5090368,"尊賢里"
"190",23913302,"陸克斯企業有限公司","臺北市信義區忠孝東路5段368號2樓","No. 368, Section 5, Zhongxiao E Rd, Xinyi District, Taipei City, Taiwan 110",25.040717,121.573891,"廣居里"
"191",23928781,"台灣崇廣股份有限公司","臺北市信義區光復南路495號9樓之5","No. 495, Guangfu S Rd, Xinyi District, Taipei City, Taiwan 110",25.0324176,121.5575934,"中興里"
"192",23984185,"英屬維爾京群島商高力國際股份有限公司","臺北市信義區信義路5段7號49樓","Taipei 101, No. 7, Section 5, Xinyi Rd, Xinyi District, Taipei City, Taiwan 110",25.0339031,121.5645099,"Section 5, Xinyi Road"
"193",24234844,"世茂資產管理有限公司","臺北市內湖區南京東路6段461號6樓之3","No. 461, Section 6, Nanjing E Rd, Neihu District, Taipei City, Taiwan 114",25.0609489,121.5875008,"石潭里"
"194",24242252,"甜客廳餐飲有限公司","臺北市松山區復興北路141巷6弄6號1樓","No. 6, Alley 6, Lane 141, Fuxing N Rd, Songshan District, Taipei City, Taiwan 105",25.0535759,121.544616,"中正里"
"195",24267372,"優勢多數位行銷有限公司","臺北市中山區長安東路1段16號6樓之7","No. 16, Section 1, Chang'an E Rd, Zhongshan District, Taipei City, Taiwan 104",25.049288,121.5234278,"正得里"
"196",24298229,"壹時代企業有限公司","臺北市中山區民生西路66巷25弄3號","No. 3, Alley 25, Lane 66, Minsheng W Rd, Zhongshan District, Taipei City, Taiwan 104",25.0565211,121.5208979,"民安里"
"197",24300674,"太皏禶~有限公司","臺北市信義區基隆路2段89號7樓","No. 89, Section 2, Keelung Rd, Xinyi District, Taipei City, Taiwan 110",25.030055,121.5578922,"景聯里"
"198",24301907,"銳力沛股份有限公司","臺北市中山區民族東路2號5樓","No. 2, Minzu E Rd, Zhongshan District, Taipei City, Taiwan 104",25.0683,121.5232017,"圓山里"
"199",24301998,"新力行銷股份有限公司","臺北市信義區忠孝東路5段474號4樓","No. 474, Section 5, Zhongxiao E Rd, Xinyi District, Taipei City, Taiwan 110",25.040639,121.5771799,"廣居里"
"200",24302687,"綠城開發有限公司","臺北市大同區民生西路292號7樓","No. 292, Minsheng W Rd, Datong District, Taipei City, Taiwan 103",25.056724,121.5126045,"朝陽里"
"201",24304313,"吉配國際派對顧問有限公司","臺北市大安區忠孝東路4段169號11樓之1","No. 169, Section 4, Zhongxiao E Rd, Da’an District, Taipei City, Taiwan 106",25.0415843,121.5504279,"建安里"
"202",24305262,"凡傑李柯仕女諮詢服務有限公司","臺北市大安區忠孝東路4段222號3樓","No. 222, Section 4, Zhongxiao E Rd, Da’an District, Taipei City, Taiwan 106",25.041144,121.553401,"車層里"
"203",24306142,"橘攝婚紗有限公司","臺北市松山區八德路4段618號2樓","No. 618, Section 4, Bade Rd, Songshan District, Taipei City, Taiwan 105",25.0499006,121.5727757,"慈祐里"
"204",24307304,"以客國際貿易有限公司","臺北市大安區泰順街9號1樓","No. 9, Taishun St, Da’an District, Taipei City, Taiwan 106",25.025478,121.531593,"龍坡里"
"205",24307395,"世界先進整合行銷股份有限公司","臺北市中山區松江路101號3樓","No. 101, Songjiang Rd, Zhongshan District, Taipei City, Taiwan 104",25.0511507,121.5332607,"朱園里"
"206",24308090,"偉安貿易有限公司","臺北市文山區羅斯福路5段269巷17弄2號地下樓","No. 2, Alley 17, Lane 269, Section 5, Roosevelt Rd, Wenshan District, Taipei City, Taiwan 116",25.0016116,121.5403846,"萬祥里"
"207",24308850,"影業科技股份有限公司","臺北市大同區承德路3段144號","No. 144, Section 3, Chengde Rd, Datong District, Taipei City, Taiwan 103",25.0678618,121.5181622,"斯文里"
"208",24309416,"微風婚紗有限公司","臺北市中山區中山北路2段172號1樓","No. 172, Section 2, Zhongshan N Rd, Zhongshan District, Taipei City, Taiwan 104",25.0635919,121.5221987,"集英里"
"209",24310883,"睿禾整合行銷有限公司","臺北市信義區忠孝東路5段790巷68弄11號1樓","No. 11, Alley 68, Lane 790, Section 5, Zhongxiao E Rd, Xinyi District, Taipei City, Taiwan 110",25.0404805,121.5830526,"中坡里"
"210",24312427,"陽立科技有限公司","臺北市松山區八德路4段123號2樓之1","No. 123, Section 4, Bade Rd, Songshan District, Taipei City, Taiwan 105",25.0488463,121.5617103,"吉祥里"
"211",24312741,"璟翊國際有限公司","臺北市信義區基隆路1段97號9樓之1","No. 97, Section 1, Keelung Rd, Xinyi District, Taipei City, Taiwan 110",25.0455476,121.5673771,"敦厚里"
"212",24312854,"伊莉莎白騎士有限公司","臺北市中正區羅斯福路1段9巷2弄12號","100, Taiwan, Taipei City, Zhongzheng District, 羅斯福路一段9巷2弄12號",25.0339739,121.5181206,"新營里"
"213",24313191,"采和影像整合行銷有限公司","臺北市南港區忠孝東路6段21號12樓之1","No. 21, Section 6, Zhongxiao E Rd, Nangang District, Taipei City, Taiwan 115",25.0468916,121.5826368,"合成里"
"214",24313690,"立天應用材料股份有限公司","臺北市信義區信義路5段7號37樓","Taipei 101, No. 7, Section 5, Xinyi Rd, Xinyi District, Taipei City, Taiwan 110",25.0339031,121.5645099,"Section 5, Xinyi Road"
"215",24313848,"凱鈴精品婚紗有限公司","臺北市中山區中山北路3段1號1、2、3樓","No. 1, Section 3, Zhongshan N Rd, Zhongshan District, Taipei City, Taiwan 104",25.0786147,121.5262769,"劍潭里"
"216",24314157,"錦鶴國際股份有限公司","臺北市北投區溫泉路73巷13號7樓","No. 13, Lane 73, Wenquan Rd, Beitou District, Taipei City, Taiwan 112",25.1359765,121.5065088,"長安里"
"217",24314261,"綠色逗陣股份有限公司","臺北市信義區基隆路2段133號9樓","No. 133, Section 2, Keelung Rd, Xinyi District, Taipei City, Taiwan 110",25.0271941,121.5559877,"黎順里"
"218",24314419,"全因文化創意有限公司","臺北市信義區忠孝東路5段1之1號11樓","No. 1-1, Section 5, Zhongxiao E Rd, Xinyi District, Taipei City, Taiwan 110",25.0414073,121.5648553,"興雅里"
"219",24315944,"格泰公關顧問有限公司","臺北市松山區復興北路201號6樓之4","No. 201, Fuxing N Rd, Songshan District, Taipei City, Taiwan 105",25.0557591,121.544358,"松基里"
"220",24316697,"婚時代有限公司","臺北市信義區基隆路2段33之2號","No. 33-2, Section 2, Keelung Rd, Xinyi District, Taipei City, Taiwan 110",25.0314329,121.5588914,"景聯里"
"221",24317062,"極藝媒體有限公司","臺北市文山區木新路3段278巷7弄6號4樓","No. 6, Alley 7, Lane 278, Section 3, Muxin Rd, Wenshan District, Taipei City, Taiwan 116",24.9816288,121.5572497,"樟文里"
"222",24317859,"大舉創意整合有限公司","臺北市文山區興隆路3段221巷6弄12號2樓","No. 12, Alley 6, Lane 221, Section 3, Xinglong Rd, Wenshan District, Taipei City, Taiwan 116",24.9937459,121.560556,"興家里"
"223",24318153,"聖諾威股份有限公司","臺北市內湖區瑞光路258巷2號9樓","No. 2, Lane 258, Ruiguang Rd, Neihu District, Taipei City, Taiwan 114",25.075303,121.5755845,"港墘里"
"224",24318858,"台灣金厝有限公司","臺北市中山區林森北路609號地下室","104, Taiwan, Taipei City, Zhongshan District, Lane 133, Linsen N Rd, 7號中山區林森北路133巷7號4樓",25.051047,121.525661,"Lane 133, Linsen North Road"
"225",24318891,"珍緣婚禮顧問有限公司","臺北市大安區樂業街42號","No. 42, Leye St, Da’an District, Taipei City, Taiwan 106",25.0230711,121.5497539,"虎嘯里"
"226",24319913,"紫綾花苑有限公司","臺北市信義區忠孝東路4段553巷22弄4號","No. 4, Alley 22, Lane 553, Section 4, Zhongxiao E Rd, Xinyi District, Taipei City, Taiwan 110",25.0431649,121.563105,"新仁里"
"227",24320025,"台商資源國際有限公司","臺北市中山區松江路17號6樓","No. 17, Songjiang Rd, Zhongshan District, Taipei City, Taiwan 104",25.0465453,121.5331453,"朱園里"
"228",24320355,"彩堂設計有限公司","臺北市內湖區內湖路1段91巷35弄30號2樓","No. 30, Alley 35, Lane 91, Section 1, Neihu Rd, Neihu District, Taipei City, Taiwan 114",25.0873236,121.5616347,"西安里"
"229",24320600,"樂色創藝有限公司","臺北市士林區中山北路5段519號2樓","No. 519, Section 5, Zhongshan N Rd, Shilin District, Taipei City, Taiwan 111",25.0938741,121.5278575,"福林里"
"230",24321100,"季創意婚禮有限公司","臺北市中山區龍江路249巷7號1樓","No. 7, Lane 249, Longjiang Rd, Zhongshan District, Taipei City, Taiwan 104",25.0588609,121.541353,"江山里"
"231",24321122,"鐵磨米蓋斯納國際無限公司","臺北市萬華區西園路1段200號10樓","No. 200, Section 1, Xiyuan Rd, Wanhua District, Taipei City, Taiwan 108",25.035972,121.499159,"青山里"
"232",24322109,"皮克思文化傳播股份有限公司","臺北市信義區基隆路1段159號13樓之1","No. 159, Section 1, Keelung Rd, Xinyi District, Taipei City, Taiwan 110",25.042004,121.565264,"興雅里"
"233",24323058,"紅伎伎互動行銷有限公司","臺北市松山區南京東路4段53巷10弄15號","No. 15, Alley 10, Lane 53, Section 4, Nanjing E Rd, Songshan District, Taipei City, Taiwan 105",25.0533183,121.5517597,"中華里"
"234",24323120,"若魚整合行銷有限公司","臺北市大安區信義路2段208號8樓之3","No. 208, Section 2, Xinyi Rd, Da’an District, Taipei City, Taiwan 106",25.0334369,121.5307573,"福住里"
"235",24323542,"博士密碼時尚美學有限公司","臺北市大安區大安路1段65號2樓","No. 65, Section 1, Da'an Rd, Da’an District, Taipei City, Taiwan 106",25.0425651,121.5463003,"光武里"
"236",24324394,"飛群國際行銷顧問有限公司","臺北市中山區復興北路176號12樓","No. 176, Fuxing N Rd, Zhongshan District, Taipei City, Taiwan 104",25.054055,121.543858,"復華里"
"237",24324444,"艾瓦奇多媒體有限公司","臺北市大安區通化街165巷11號","No. 11, Lane 165, Tonghua St, Da’an District, Taipei City, Taiwan 106",25.0284255,121.5543664,"臨江里"
"238",24325844,"毛寶安設計有限公司","臺北市大安區仁愛路3段84號","No. 84, Section 3, Ren'ai Rd, Da’an District, Taipei City, Taiwan 106",25.0376414,121.5389816,"和安里"
"239",24326484,"石豆國際有限公司","臺北市信義區松德路65號8樓之4","No. 65, Songde Rd, Xinyi District, Taipei City, Taiwan 110",25.0384449,121.576699,"國業里"
"240",24326920,"可里斯曼國際美容股份有限公司","臺北市松山區南京東路4段117號2、3樓","No. 117, Section 4, Nanjing E Rd, Songshan District, Taipei City, Taiwan 105",25.0517139,121.5549462,"東勢里"
"241",24328173,"群悅公關顧問有限公司","臺北市中山區中山北路2段59巷2號3樓之1","No. 2, Lane 59, Section 2, Zhongshan N Rd, Zhongshan District, Taipei City, Taiwan 104",25.0558491,121.5233334,"中山里"
"242",24328737,"一方國際有限公司","臺北市中山區中山北路2段114號1樓","No. 114, Section 2, Zhongshan N Rd, Zhongshan District, Taipei City, Taiwan 104",25.0607931,121.5227527,"集英里"
"243",24329150,"就勢創意整合行銷有限公司","臺北市士林區中正路118號3樓","No. 118, Zhongzheng Rd, Shilin District, Taipei City, Taiwan 111",25.0962069,121.5290003,"福志里"
"244",24329911,"上網資通股份有限公司","臺北市中正區開封街1段105號2樓之6","No. 105, Section 1, Kaifeng St, Zhongzheng District, Taipei City, Taiwan 100",25.046036,121.510136,"光復里"
"245",24329975,"華山國際股份有限公司","臺北市中山區松江路54號4樓之4","No. 54, Songjiang Rd, Zhongshan District, Taipei City, Taiwan 104",25.0486393,121.5326761,"興亞里"
"246",24330136,"知路創意行銷有限公司","臺北市大安區信義路4段151號6樓之2","No. 151, Section 4, Xinyi Rd, Da’an District, Taipei City, Taiwan 106",25.0334506,121.5500573,"敦安里"
"247",24330282,"上永人力資源管理顧問有限公司","臺北市中正區衡陽路51號10樓之5","No. 51, Hengyang Rd, Zhongzheng District, Taipei City, Taiwan 100",25.042403,121.512201,"光復里"
"248",24334597,"集智宣策略設計有限公司","臺北市中正區重慶南路1段63號6樓","No. 63, Section 1, Chongqing S Rd, Zhongzheng District, Taipei City, Taiwan 100",25.044444,121.513382,"黎明里"
"249",24335218,"原創檔案傳播有限公司","臺北市中正區重慶南路1段99號11樓之8","No. 99, Section 1, Chongqing S Rd, Zhongzheng District, Taipei City, Taiwan 100",25.043041,121.513371,"黎明里"
"250",24335907,"祩蝚鴔猼悒鬫陪迨膝q","臺北市大安區仁愛路4段101號4樓之2","No. 101, Section 4, Ren'ai Rd, Da’an District, Taipei City, Taiwan 106",25.0387291,121.5483189,"仁愛里"
"251",24336602,"鑫湛國際管理顧問股份有限公司","臺北市中正區忠孝東路2段35號","No. 35, Section 2, Zhongxiao E Rd, Zhongzheng District, Taipei City, Taiwan 100",25.043868,121.527995,"梅花里"
"252",24336650,"龍程生命事業有限公司","臺北市中山區民權東路2段196號","No. 196, Section 2, Minquan E Rd, Zhongshan District, Taipei City, Taiwan 104",25.0621687,121.5361605,"松江里"
"253",24336743,"全億數位科技股份有限公司","臺北市大安區忠孝東路4段270號15樓","No. 270, Section 4, Zhongxiao E Rd, Da’an District, Taipei City, Taiwan 106",25.0411915,121.5547993,"正聲里"
"254",24337428,"日星會場佈置股份有限公司","臺北市松山區光復北路60巷5號2樓","No. 5, Lane 60, Guangfu N Rd, Songshan District, Taipei City, Taiwan 105",25.049676,121.5574625,"復勢里"
"255",24338030,"黑色餅乾國際娛樂股份有限公司","臺北市信義區光復南路475之1號","No. 475, Guangfu S Rd, Xinyi District, Taipei City, Taiwan 110",25.0337656,121.5576616,"中興里"
"256",24338046,"亞哲國際開發股份有限公司","臺北市中山區南京東路2段132號12樓","No. 132, Section 2, Nanjing E Rd, Zhongshan District, Taipei City, Taiwan 104",25.051731,121.533697,"朱園里"
"257",24338432,"找樂子有限公司","臺北市中山區中山北路1段53巷12號3樓之4","No. 12, Lane 53, Section 1, Zhongshan N Rd, Zhongshan District, Taipei City, Taiwan 104",25.0491284,121.5222987,"正得里"
"258",24338600,"大衛舞台音響有限公司","臺北市士林區中山北路5段86號","No. 86, Section 5, Zhongshan N Rd, Shilin District, Taipei City, Taiwan 111",25.0840723,121.5257518,"福林里"
"259",24338637,"異象科技股份有限公司","臺北市大同區重慶北路3段113巷34號1樓","No. 34, Lane 113, Section 3, Chongqing N Rd, Datong District, Taipei City, Taiwan 103",25.0671914,121.515203,"揚雅里"
"260",24339333,"比琺時尚藝術有限公司","臺北市中山區民生西路16號6樓之9","No. 16, Minsheng W Rd, Zhongshan District, Taipei City, Taiwan 104",25.0577082,121.52216,"民安里"
"261",24340057,"亞曼莎國際有限公司","臺北市中山區中山北路2段114號1樓","No. 114, Section 2, Zhongshan N Rd, Zhongshan District, Taipei City, Taiwan 104",25.0607931,121.5227527,"集英里"
"262",24341529,"子皿造型國際有限公司","臺北市士林區士東路266巷11弄11號1樓","No. 11, Alley 11, Lane 266, Shidong Rd, Shilin District, Taipei City, Taiwan 111",25.1119971,121.5372971,"芝山里"
"263",24341915,"皖美國際事業股份有限公司","臺北市中山區遼寧街201巷11號","No. 11, Lane 201, Liaoning St, Zhongshan District, Taipei City, Taiwan 104",25.0543109,121.543088,"復華里"
"264",24341963,"和果有限公司","臺北市中山區北安路595巷20弄8號","No. 8, Alley 20, Lane 595, Beian Rd, Zhongshan District, Taipei City, Taiwan 104",25.0816636,121.5478121,"大直里"
"265",24344005,"有意思有限公司","臺北市信義區吳興街284巷59弄7號4樓","No. 7, Alley 59, Lane 284, Wuxing St, Xinyi District, Taipei City, Taiwan 110",25.021661,121.5638174,"雙和里"
"266",24344151,"琪麗股份有限公司","臺北市中山區明水路575號","No. 575, Mingshui Rd, Zhongshan District, Taipei City, Taiwan 104",25.0797335,121.5519512,"永安里"
"267",24345530,"德穎股份有限公司","臺北市大安區仁愛路4段27巷24號地下","Lane 27, Section 4, Ren'ai Rd, Da’an District, Taipei City, Taiwan 106",25.0398092,121.5451948,"Da’an District"
"268",24345975,"娜拉典藏婚紗有限公司","臺北市萬華區中華路1段166號","No. 166, Section 1, Zhonghua Rd, Wanhua District, Taipei City, Taiwan 108",25.041391,121.507625,"新起里"
"269",24348543,"曖維多媒體廣告行銷股份有限公司","臺北市中山區遼寧街201巷11號","No. 11, Lane 201, Liaoning St, Zhongshan District, Taipei City, Taiwan 104",25.0543109,121.543088,"復華里"
"270",24349450,"幸福村設計印刷有限公司","臺北市中山區民生東路2段147巷5弄5號","No. 5, Alley 5, Lane 147, Section 2, Minsheng E Rd, Zhongshan District, Taipei City, Taiwan 104",25.0593253,121.535064,"松江里"
"271",24368717,"藝流文化企業有限公司","臺北市大安區敦化南路2段46號8樓之5","No. 46, Section 2, Dunhua S Rd, Da’an District, Taipei City, Taiwan 106",25.0312217,121.5483739,"住安里"
"272",24370137,"迎堤有限公司","臺北市北投區大度路3段297號2樓之2","No. 297, Section 3, Dadu Rd, Beitou District, Taipei City, Taiwan 112",25.1231365,121.4667399,"關渡里"
"273",24382915,"太格股份有限公司","臺北市中山區長安東路2段118之5號11樓","No. 118-5, Section 2, Chang'an E Rd, Zhongshan District, Taipei City, Taiwan 104",25.0482741,121.5362894,"朱園里"
"274",24406748,"萬世吉有限公司","臺北市大同區寧夏路63號7樓之1","No. 63, Ningxia Rd, Datong District, Taipei City, Taiwan 103",25.058244,121.5152833,"雙連里"
"275",24418060,"凡特思傳媒行銷有限公司","臺北市南港區南港路3段215號","No. 215, Section 3, Nangang Rd, Nangang District, Taipei City, Taiwan 115",25.0513809,121.580663,"玉成里"
"276",24450835,"邁堂股份有限公司","臺北市松山區敦化北路143號4樓","No. 143, Dunhua N Rd, Songshan District, Taipei City, Taiwan 105",25.0537573,121.5493306,"中華里"
"277",24451975,"格治傳播有限公司","臺北市松山區復興北路201號6樓之3","No. 201, Fuxing N Rd, Songshan District, Taipei City, Taiwan 105",25.0557591,121.544358,"松基里"
"278",24452664,"嶬嶬顧問有限公司","臺北市中正區館前路34號11樓","No. 34, Guanqian Rd, Zhongzheng District, Taipei City, Taiwan 100",25.0445795,121.514879,"黎明里"
"279",24453045,"拉芙莉顧問有限公司","臺北市松山區松河街180號2樓","No. 180, Songhe St, Songshan District, Taipei City, Taiwan 105",25.0515765,121.5773344,"慈祐里"
"280",24453122,"廣龍策略行銷有限公司","臺北市中山區松江路185號6樓之1","No. 185, Songjiang Rd, Zhongshan District, Taipei City, Taiwan 104",25.0564886,121.5333489,"中央里"
"281",24453609,"吉禾國際商務有限公司","臺北市中山區吉林路245號5樓","No. 245, Jilin Rd, Zhongshan District, Taipei City, Taiwan 104",25.0613148,121.530404,"新生里"
"282",24453930,"麥斯達有限公司","臺北市內湖區民權東路6段280巷45弄11號3樓","No. 11, Alley 45, Lane 280, Section 6, Minquan E Rd, Neihu District, Taipei City, Taiwan 114",25.070934,121.606205,"葫洲里"
"283",24455368,"甜心寶貝喜事網有限公司","臺北市士林區德行東路400號","No. 400, Dexing E Rd, Shilin District, Taipei City, Taiwan 111",25.111548,121.540503,"東山里"
"284",24457393,"植樹果沐有限公司","臺北市南港區南港路3段106巷4弄7號4樓","No. 7, Alley 4, Lane 106, Section 3, Nangang Rd, Nangang District, Taipei City, Taiwan 115",25.0546393,121.5896056,"西新里"
"285",24457680,"佰達物業管理顧問有限公司","臺北市士林區德行東路266巷17號3樓","No. 17, Lane 266, Dexing E Rd, Shilin District, Taipei City, Taiwan 111",25.1092809,121.5352012,"芝山里"
"286",24458409,"奇正顧問有限公司","臺北市信義區信義路4段6號6樓","No. 393-6, Section 4, Xinyi Rd, Xinyi District, Taipei City, Taiwan 110",25.0335199,121.5586149,"中興里"
"287",24460432,"本事設計有限公司","臺北市大同區承德路3段297之1號2樓","No. 297, Section 3, Chengde Rd, Datong District, Taipei City, Taiwan 103",25.0741907,121.5196725,"重慶里"
"288",24460545,"寫演聯合文化有限公司","臺北市大安區復興南路1段126巷1號2樓之24","No. 1, Lane 126, Section 1, Fuxing S Rd, Da’an District, Taipei City, Taiwan 106",25.0431322,121.5431947,"誠安里"
"289",24460904,"禮御生命美學股份有限公司","臺北市大安區臥龍街188巷42之7號","No. 42-7, Lane 188, Wolong St, Da’an District, Taipei City, Taiwan 106",25.016484,121.550795,"黎元里"
"290",24461468,"葛芮絲婚禮有限公司","臺北市中山區中山北路2段183巷4-1號","No. 4-1, Lane 183, Section 2, Zhongshan N Rd, Zhongshan District, Taipei City, Taiwan 104",25.0636872,121.5237008,"恆安里"
"291",24461848,"喜禾國際行銷股份有限公司","臺北市士林區環河北路3段125號","No. 125, Section 3, Huanhe N Rd, Shilin District, Taipei City, Taiwan 111",25.0851231,121.506329,"葫蘆里"
"292",24462570,"印霈廣告有限公司","臺北市大安區復興南路2段84號5樓之2","No. 84, Section 2, Fuxing S Rd, Da’an District, Taipei City, Taiwan 106",25.0308585,121.5432866,"龍圖里"
"293",24463206,"鼎羚國際有限公司","臺北市大安區信義路2段72號地下","Section 2, Xinhai Rd, Da’an District, Taipei City, Taiwan 106",25.021852,121.5387914,"Taipei City"
"294",24463938,"小吉企業有限公司","臺北市內湖區康寧路3段189巷21弄1號","No. 1, Alley 21, Lane 189, Section 3, Kangning Rd, Neihu District, Taipei City, Taiwan 114",25.0706441,121.6127582,"明湖里"
"295",24464227,"紅海創意股份有限公司","臺北市中山區松江路274號2樓","No. 274, Songjiang Rd, Zhongshan District, Taipei City, Taiwan 104",25.0598169,121.5327069,"中庄里"
"296",24465598,"阿波羅食品有限公司","臺北市大安區和平東路3段109號2樓之1","No. 109, Section 3, Heping E Rd, Da’an District, Taipei City, Taiwan 106",25.0245103,121.5513245,"全安里"
"297",24465957,"品昕企業有限公司","臺北市大安區信義路4段187號7樓","No. 187, Section 4, Xinyi Rd, Da’an District, Taipei City, Taiwan 106",25.033616,121.55097,"敦安里"
"298",24466436,"薇拉婚紗服務股份有限公司","臺北市中山區植福路8號","No. 8, Zhifu Rd, Zhongshan District, Taipei City, Taiwan 104",25.083594,121.5549083,"成巨"
"299",24466479,"台北聯合國際管理顧問有限公司","臺北市大安區忠孝東路4段166號4樓","No. 166, Section 4, Zhongxiao E Rd, Da’an District, Taipei City, Taiwan 106",25.0412922,121.5505679,"建倫里"
"300",24466787,"維易國際有限公司","臺北市松山區撫遠街376巷16號1樓","No. 16, Lane 376, Fuyuan St, Songshan District, Taipei City, Taiwan 105",25.063739,121.5648358,"莊敬里"
"301",24467625,"葉石整合行銷有限公司","臺北市大同區長安西路180號6樓之1","No. 180, Chang'an W Rd, Datong District, Taipei City, Taiwan 103",25.0510589,121.515858,"建明里"
"302",24467667,"基石國際開發有限公司","臺北市大安區忠孝東路4段311號7樓之10","No. 311, Section 4, Zhongxiao E Rd, Da’an District, Taipei City, Taiwan 106",25.0416146,121.5557893,"華聲里"
"303",24469010,"覺享國際事業有限公司","臺北市大安區建國南路1段318巷8號1樓","No. 8, Lane 318, Section 1, Jianguo S Rd, Da’an District, Taipei City, Taiwan 106",25.0352314,121.5370618,"民炤里"
"304",24470826,"鼎豐科技管理顧問有限公司","臺北市信義區松德路65號9樓","No. 65, Songde Rd, Xinyi District, Taipei City, Taiwan 110",25.0384449,121.576699,"國業里"
"305",24473062,"薇汀線上有限公司","臺北市信義區基隆路1段155號13樓之6","No. 155, Section 1, Keelung Rd, Xinyi District, Taipei City, Taiwan 110",25.042178,121.565396,"興雅里"
"306",24473990,"有情人婚姻顧問有限公司","臺北市中山區復興北路178號2樓之1","No. 178, Fuxing N Rd, Zhongshan District, Taipei City, Taiwan 104",25.0542459,121.543802,"復華里"
"307",24474647,"省錢服務有限公司","臺北市松山區南京東路5段206號5樓","No. 206, Section 5, Nanjing E Rd, Songshan District, Taipei City, Taiwan 105",25.0511856,121.5649611,"新聚里"
"308",24474695,"幸福心靈股份有限公司","臺北市大安區忠孝東路4段295號3樓","No. 295, Section 4, Zhongxiao E Rd, Da’an District, Taipei City, Taiwan 106",25.041724,121.555095,"華聲里"
"309",24475293,"台灣高力物業股份有限公司","臺北市信義區信義路5段7號49樓之1","Taipei 101, No. 7, Section 5, Xinyi Rd, Xinyi District, Taipei City, Taiwan 110",25.0339031,121.5645099,"Section 5, Xinyi Road"
"310",24476477,"尼賀創意整合行銷有限公司","臺北市松山區八德路2段400號7樓之1","No. 400, Section 2, Bade Rd, Songshan District, Taipei City, Taiwan 105",25.0480199,121.5465857,"中崙里"
"311",24476504,"拓森國際整合行銷有限公司","臺北市大安區敦化南路2段200巷18號3樓","No. 18, Lane 200, Section 2, Dunhua S Rd, Da’an District, Taipei City, Taiwan 106",25.0227457,121.5474917,"虎嘯里"
"312",24476510,"香格里拉漢藏全球網有限公司","臺北市松山區南京東路5段328號7樓之1","No. 328, Section 5, Nanjing E Rd, Songshan District, Taipei City, Taiwan 105",25.05108,121.568586,"新聚里"
"313",24477356,"大誠物業股份有限公司","臺北市大同區歸綏街132之1號5樓","No. 132-1, Guisui St, Datong District, Taipei City, Taiwan 103",25.05824,121.5146571,"雙連里"
"314",24477969,"魚樂整合行銷有限公司","臺北市大安區安東街35巷17號3樓之6","No. 17, Lane 35, Andong St, Da’an District, Taipei City, Taiwan 106",25.0441354,121.5431094,"誠安里"
"315",24478708,"國泰企業管理顧問有限公司","臺北市士林區福國路21號4樓","No. 21, Fuguo Rd, Shilin District, Taipei City, Taiwan 111",25.1018852,121.5243778,"德行里"
"316",24479208,"歐妃斯國際企業有限公司","臺北市松山區健康路6號","No. 6, Jiankang Rd, Songshan District, Taipei City, Taiwan 105",25.0521891,121.5526151,"中華里"
"317",24479431,"三的多次方多媒體有限公司","臺北市大安區安和路1段90巷12號5樓","No. 12, Lane 90, Section 1, Anhe Rd, Da’an District, Taipei City, Taiwan 106",25.0346328,121.5514627,"敦安里"
"318",24479875,"安翌全球電子商務股份有限公司","臺北市松山區南京東路3段287號5樓","No. 287, Section 3, Nanjing E Rd, Songshan District, Taipei City, Taiwan 105",25.0520849,121.546199,"中正里"
"319",24480140,"靖夏國際企業有限公司","臺北市萬華區長順街123巷15號","No. 15, Lane 123, Zhangshun St, Wanhua District, Taipei City, Taiwan 108",25.032929,121.489289,"華江里"
"320",24481443,"九藝國際有限公司","臺北市信義區信義路5段150巷2號15樓之4","No. 2, Lane 150, Section 5, Xinyi Rd, Xinyi District, Taipei City, Taiwan 110",25.0281959,121.570994,"三犁里"
"321",24482169,"橘攝國際婚紗攝影有限公司","臺北市松山區八德路4段618號1樓","No. 618, Section 4, Bade Rd, Songshan District, Taipei City, Taiwan 105",25.0499006,121.5727757,"慈祐里"
"322",24482484,"玉弼科顧問有限公司","臺北市士林區福國路19號2樓","No. 19, Fuguo Rd, Shilin District, Taipei City, Taiwan 111",25.1019005,121.5244293,"德行里"
"323",24483934,"普菲特環宇國際有限公司","臺北市中山區中山北路3段36巷2號9樓","No. 2, Lane 36, Section 3, Zhongshan N Rd, Zhongshan District, Taipei City, Taiwan 104",25.065735,121.5218041,"集英里"
"324",24483977,"伊蕾娜有限公司","臺北市中山區德惠街191號6樓","No. 191, Dehui St, Zhongshan District, Taipei City, Taiwan 104",25.0666409,121.5325314,"新喜里"
"325",24484384,"巴夏股份有限公司","臺北市信義區永吉路187巷17號12樓","No. 17, Lane 187, Yongji Rd, Xinyi District, Taipei City, Taiwan 110",25.046381,121.572581,"五常里"
"326",24485010,"姊妹淘數位科技股份有限公司","臺北市中山區民生東路1段29號5樓之5","No. 29, Section 1, Minsheng E Rd, Zhongshan District, Taipei City, Taiwan 104",25.0582082,121.5252471,"聚盛里"
"327",24486411,"再村企業有限公司","臺北市士林區通河東街1段124巷10號1樓","111, Taiwan, Taipei City, Shilin District, 通河東街一段124巷10號",25.0865172,121.516459,"福中里"
"328",24486427,"霍爾飛翔事業有限公司","臺北市松山區八德路4段138號12樓","No. 138, Section 4, Bade Rd, Songshan District, Taipei City, Taiwan 105",25.0483545,121.5623004,"復盛里"
"329",24486432,"家騰開發有限公司","臺北市松山區八德路4段138號12樓","No. 138, Section 4, Bade Rd, Songshan District, Taipei City, Taiwan 105",25.0483545,121.5623004,"復盛里"
"330",24486480,"捷瑞傳播有限公司","臺北市松山區寶清街5號","No. 5, Baoqing St, Songshan District, Taipei City, Taiwan 105",25.0498023,121.569105,"新聚里"
"331",24486854,"方源國際股份有限公司","臺北市松山區復興北路81巷12號1樓","No. 12, Lane 81, Fuxing N Rd, Songshan District, Taipei City, Taiwan 105",25.051126,121.5447877,"中正里"
"332",24487452,"鎮鼎廣告工程有限公司","臺北市中山區德惠街153號","No. 153, Dehui St, Zhongshan District, Taipei City, Taiwan 104",25.0666415,121.5309114,"新喜里"
"333",24489487,"緹佧芙媒體科技有限公司","臺北市中山區林森北路100號6樓","No. 100, Linsen N Rd, Zhongshan District, Taipei City, Taiwan 104",25.0504932,121.5247181,"正得里"
"334",24491527,"重泰國際有限公司","臺北市中山區南京東路2段137號14樓","No. 137, Section 2, Nanjing E Rd, Zhongshan District, Taipei City, Taiwan 104",25.052339,121.535082,"中央里"
"335",24492390,"丹陽文化有限公司","臺北市信義區松德路65號11樓之1","No. 65, Songde Rd, Xinyi District, Taipei City, Taiwan 110",25.0384449,121.576699,"國業里"
"336",24492666,"大森影片有限公司","臺北市中正區臨沂街25巷16號3樓","No. 16, Lane 25, Linyi St, Zhongzheng District, Taipei City, Taiwan 100",25.041309,121.531176,"幸市里"
"337",24493503,"曼哈頓婚紗有限公司","臺北市中山區中山北路2段174號","No. 174, Section 2, Zhongshan N Rd, Zhongshan District, Taipei City, Taiwan 104",25.0636449,121.5221874,"集英里"
"338",24494432,"安捷管理顧問股份有限公司","臺北市松山區復興北路99號4樓之2","No. 99, Fuxing N Rd, Songshan District, Taipei City, Taiwan 105",25.052848,121.5443515,"中正里"
"339",24494974,"黛比和傑克有限公司","臺北市信義區瑞雲街1號2樓","No. 1, Ruiyun St, Xinyi District, Taipei City, Taiwan 110",25.0166129,121.575654,"六合里"
"340",24495158,"自由設計有限公司","臺北市信義區忠孝東路5段71巷3弄8號2樓","No. 8, Lane 71, Section 5, Zhongxiao E Rd, Xinyi District, Taipei City, Taiwan 110",25.0419139,121.56721,"興雅里"
"341",24495832,"台灣浩希有限公司","臺北市中山區林森北路133巷63號2樓","No. 63, Lane 133, Linsen N Rd, Zhongshan District, Taipei City, Taiwan 104",25.05083,121.5273515,"正義里"
"342",24495903,"臺灣唯永實業有限公司","臺北市大安區光復南路442號10樓","No. 442, Guangfu S Rd, Da’an District, Taipei City, Taiwan 106",25.0358404,121.5572657,"光信里"
"343",24497418,"佳田開發有限公司","臺北市大安區忠孝東路3段233-3號2樓","No. 233-3, Section 3, Zhongxiao E Rd, Da’an District, Taipei City, Taiwan 106",25.0419037,121.5405663,"昌隆里"
"344",24532858,"玲瓏整合行銷有限公司","臺北市信義區基隆路1段159號13樓","No. 159, Section 1, Keelung Rd, Xinyi District, Taipei City, Taiwan 110",25.042004,121.565264,"興雅里"
"345",24532891,"六龍文創有限公司","臺北市南港區向陽路84號3樓","No. 84, Xiangyang Rd, Nangang District, Taipei City, Taiwan 115",25.0530674,121.5953698,"東明里"
"346",24533202,"四田一心品牌創意行銷有限公司","臺北市大安區忠孝東路4段176之1號2樓","No. 176-1, Section 4, Zhongxiao E Rd, Da’an District, Taipei City, Taiwan 106",25.0412727,121.5512621,"建倫里"
"347",24534188,"震寰國際資源整合有限公司","臺北市中山區松江路283號5樓之1","No. 283, Songjiang Rd, Zhongshan District, Taipei City, Taiwan 104",25.060222,121.5334757,"松江里"
"348",24534928,"順德服務有限公司","臺北市中山區中山北路2段52號11樓之1","No. 52, Section 2, Zhongshan N Rd, Zhongshan District, Taipei City, Taiwan 104",25.056342,121.52255,"民安里"
"349",24537805,"楷逸國際有限公司","臺北市中正區重慶南路1段121號5樓之12","No. 121, Section 1, Chongqing S Rd, Zhongzheng District, Taipei City, Taiwan 100",25.0422299,121.513352,"黎明里"
"350",24537827,"源星娛樂傳媒事業有限公司","臺北市大安區光復南路280巷36之2號3樓","No. 36-2, Lane 280, Guangfu S Rd, Da’an District, Taipei City, Taiwan 106",25.0399355,121.555842,"正聲里"
"351",24538831,"日央文化事業股份有限公司","臺北市松山區南京東路3段287號10樓","No. 287, Section 3, Nanjing E Rd, Songshan District, Taipei City, Taiwan 105",25.0520849,121.546199,"中正里"
"352",24540111,"旭謄有限公司","臺北市大安區延吉街137巷7弄5號2樓","No. 5, Alley 7, Lane 137, Yanji St, Da’an District, Taipei City, Taiwan 106",25.04237,121.5547803,"華聲里"
"353",24540626,"聽見音樂股份有限公司","臺北市士林區中山北路7段165之2號1樓","No. 165-2, Section 7, Zhongshan N Rd, Shilin District, Taipei City, Taiwan 111",25.1242406,121.532381,"天母里"
"354",24541195,"璽悅婚紗有限公司","臺北市大安區忠孝東路4段299號4樓之1","No. 299, Section 4, Zhongxiao E Rd, Da’an District, Taipei City, Taiwan 106",25.041614,121.55532,"華聲里"
"355",24541337,"蘇小軒實業有限公司","臺北市中山區長春路184號4樓之2","No. 184, Changchun Rd, Zhongshan District, Taipei City, Taiwan 104",25.0546275,121.5346469,"中央里"
"356",24541391,"四熙策略公關顧問有限公司","臺北市中正區館前路20號8樓之1","No. 20, Guanqian Rd, Zhongzheng District, Taipei City, Taiwan 100",25.045214,121.5148742,"黎明里"
"357",24541759,"山茶屋有限公司","臺北市中山區中山北路1段121巷3號1樓","No. 3, Lane 121, Section 1, Zhongshan N Rd, Zhongshan District, Taipei City, Taiwan 104",25.0513136,121.5229517,"正得里"
"358",24542379,"台北城飯店有限公司","臺北市大同區保安街11號及13號","No. 11, Bao'an St, Datong District, Taipei City, Taiwan 103",25.059254,121.51321,"延平里"
"359",24543721,"靖蛨蒛曈y型美學有限公司","臺北市大同區五原路19號3樓之13","No. 19, Wuyuan Rd, Datong District, Taipei City, Taiwan 103",25.0566929,121.517332,"星明里"
"360",24545853,"紫筠軒企業有限公司","臺北市士林區中正路229號","No. 229, Zhongzheng Rd, Shilin District, Taipei City, Taiwan 111",25.0952232,121.5261376,"福林里"
"361",24546121,"靚澤影像有限公司","臺北市內湖區民權東路6段21巷35號5樓","No. 35, Section 6, Minquan E Rd, Neihu District, Taipei City, Taiwan 114",25.0648206,121.5728678,"湖元里"
"362",24546831,"溯海整合行銷有限公司","臺北市松山區健康路325巷18弄16號5樓","No. 16, Alley 18, Lane 325, Jiankang Rd, Songshan District, Taipei City, Taiwan 105",25.055872,121.568117,"鵬程里"
"363",24547108,"天佑國際服務事業有限公司","臺北市中山區民權東路2段135巷18號","No. 18, Lane 135, Section 2, Minquan E Rd, Zhongshan District, Taipei City, Taiwan 104",25.0637229,121.5349285,"行政里"
"364",24547888,"台灣慧斗有限公司","臺北市大安區復興南路1段368號13樓","No. 368, Section 1, Fuxing S Rd, Da’an District, Taipei City, Taiwan 106",25.034979,121.543303,"和安里"
"365",24548388,"漢諾運動行銷有限公司","臺北市中山區復興北路86號9樓","No. 86, Fuxing N Rd, Zhongshan District, Taipei City, Taiwan 104",25.0514195,121.5438924,"力行里"
"366",24549302,"抓花行銷整合有限公司","臺北市中山區錦州街46號9樓之1","No. 46, Jinzhou St, Zhongshan District, Taipei City, Taiwan 104",25.060094,121.526128,"聚盛里"
"367",24550617,"台北美系列飯店有限公司","臺北市中山區建國北路1段156號11樓","No. 156, Section 1, Jianguo N Rd, Zhongshan District, Taipei City, Taiwan 104",25.051628,121.536346,"朱園里"
"368",24551117,"俊詠科技股份有限公司","臺北市松山區復興北路1號13樓之1","No. 1, Fuxing N Rd, Songshan District, Taipei City, Taiwan 105",25.0480218,121.5443569,"中正里"
"369",24551405,"奧堤創意股份有限公司","臺北市信義區基隆路2段51號7樓之4","No. 51, Section 2, Keelung Rd, Xinyi District, Taipei City, Taiwan 110",25.0309403,121.5585445,"景聯里"
"370",24551904,"維米創意有限公司","臺北市中山區五常街53巷24號5樓","No. 24, Lane 53, Wuchang St, Zhongshan District, Taipei City, Taiwan 104",25.06693,121.539565,"行仁里"
"371",24553972,"有心設計事業有限公司","臺北市大安區安居街45號4樓","No. 45, Anju St, Da’an District, Taipei City, Taiwan 106",25.0199543,121.5538944,"黎孝里"
"372",24554228,"台北巴黎婚紗有限公司","臺北市松山區八德路4段657號1樓","No. 657, Section 4, Bade Rd, Songshan District, Taipei City, Taiwan 105",25.0501016,121.5756877,"慈祐里"
"373",24555367,"薇鼎婚禮事業有限公司","臺北市松山區南京東路5段163號3樓之5","No. 163, Section 5, Nanjing E Rd, Songshan District, Taipei City, Taiwan 105",25.0517161,121.5624688,"東光里"
"374",24555893,"順賓汽車有限公司","臺北市士林區承德路4段309號1樓","No. 309, Section 4, Chengde Rd, Shilin District, Taipei City, Taiwan 111",25.090145,121.5181869,"後港里"
"375",24556464,"康力國際有限公司","臺北市中山區民生東路2段149號7樓","No. 149, Section 2, Minsheng E Rd, Zhongshan District, Taipei City, Taiwan 104",25.058166,121.5352974,"松江里"
"376",24557858,"百建開發有限公司","臺北市大安區敦化南路2段57號6樓","No. 57, Section 2, Dunhua S Rd, Da’an District, Taipei City, Taiwan 106",25.0311548,121.5491859,"義安里"
"377",24559336,"朝和實業股份有限公司","臺北市中山區復興北路420號11樓","No. 420, Fuxing N Rd, Zhongshan District, Taipei City, Taiwan 104",25.0627827,121.5438693,"下埤里"
"378",24560262,"憶鑫資產管理顧問有限公司","臺北市中山區南京西路1-1號6樓","No. 1-1, Nanjing W Rd, Zhongshan District, Taipei City, Taiwan 104",25.0525607,121.5218506,"民安里"
"379",24560517,"大輝有限公司","臺北市大安區信義路4段279號6樓之1","No. 279, Section 4, Xinyi Rd, Da’an District, Taipei City, Taiwan 106",25.0333997,121.5545918,"敦煌里"
"380",24560684,"千合趣生活創意有限公司","臺北市萬華區昆明街301號1樓","No. 301, Kunming St, Wanhua District, Taipei City, Taiwan 108",25.0356712,121.5034954,"富福里"
"381",24561500,"愛樂芙婚禮有限公司","臺北市萬華區寶興街38巷7號2樓","No. 7, Lane 38, Baoxing St, Wanhua District, Taipei City, Taiwan 108",25.0269803,121.4930731,"和德里"
"382",24561804,"宜承美利股份有限公司","臺北市中山區南京東路2段137號14樓","No. 137, Section 2, Nanjing E Rd, Zhongshan District, Taipei City, Taiwan 104",25.052339,121.535082,"中央里"
"383",24562368,"立恆速遞股份有限公司","臺北市中山區新生北路2段87號1樓","No. 87, Section 2, Xinsheng N Rd, Zhongshan District, Taipei City, Taiwan 104",25.0572731,121.5278862,"中原里"
"384",24562584,"戀愛十七資訊顧問有限公司","臺北市中正區忠孝西路1段72號7樓之4","No. 72, Section 1, Zhongxiao W Rd, Zhongzheng District, Taipei City, Taiwan 100",25.0468467,121.5140091,"黎明里"
"385",24563140,"品晴國際整合行銷有限公司","臺北市士林區士東路200巷55號1樓","No. 55, Lane 200, Shidong Rd, Shilin District, Taipei City, Taiwan 111",25.1107493,121.5340418,"三玉里"
"386",24563161,"驚嘆號藝能有限公司","臺北市信義區信義路6段73號2樓","No. 73, Section 6, Xinyi Rd, Xinyi District, Taipei City, Taiwan 110",25.0356069,121.577033,"國業里"
"387",24563991,"凡輝有限公司","臺北市士林區前港街26巷7號1樓","No. 7, Lane 26, Qiangang St, Shilin District, Taipei City, Taiwan 111",25.084205,121.522253,"前港里"
"388",24564020,"上網顧問股份有限公司","臺北市中正區開封街1段105號2樓之6","No. 105, Section 1, Kaifeng St, Zhongzheng District, Taipei City, Taiwan 100",25.046036,121.510136,"光復里"
"389",24564984,"福爾摩沙設計有限公司","臺北市大同區南京西路346號7樓之1","No. 346, Nanjing W Rd, Datong District, Taipei City, Taiwan 103",25.053746,121.511514,"永樂里"
"390",24565891,"台灣優質農業科技發展股份有限公司","臺北市大安區光復南路102號13樓","No. 102, Guangfu S Rd, Da’an District, Taipei City, Taiwan 106",25.0435228,121.5574896,"華聲里"
"391",24566028,"全國寶塔有限公司","臺北市中山區吉林路245號7樓","No. 245, Jilin Rd, Zhongshan District, Taipei City, Taiwan 104",25.0613148,121.530404,"新生里"
"392",24566033,"群彩創意有限公司","臺北市中山區南京東路2段137號14樓","No. 137, Section 2, Nanjing E Rd, Zhongshan District, Taipei City, Taiwan 104",25.052339,121.535082,"中央里"
"393",24566337,"萬華生命禮儀有限公司","臺北市大安區臥龍街190號","No. 190, Wolong St, Da’an District, Taipei City, Taiwan 106",25.0180818,121.5511125,"黎元里"
"394",24566391,"一個露露有限公司","臺北市信義區虎林街202巷56號","No. 56, Lane 202, Hulin St, Xinyi District, Taipei City, Taiwan 110",25.0375359,121.575806,"國業里"
"395",24568308,"方<U+5586>股份有限公司","臺北市大安區仁愛路3段26之3號7樓","No. 26-3, Section 3, Ren'ai Rd, Da’an District, Taipei City, Taiwan 106",25.0376257,121.5361027,"民炤里"
"396",24568623,"遠集國際貿易有限公司","臺北市中山區吉林路150號7樓之8","No. 150, Jilin Rd, Zhongshan District, Taipei City, Taiwan 104",25.0561499,121.5300314,"中原里"
"397",24569382,"德益國際貿易有限公司","臺北市松山區敦化北路88號2樓之1","No. 88, Dunhua N Rd, Songshan District, Taipei City, Taiwan 105",25.0513338,121.5484798,"中正里"
"398",24570851,"合家管理顧問有限公司","臺北市松山區南京東路4段197號7樓","No. 197, Section 4, Nanjing E Rd, Songshan District, Taipei City, Taiwan 105",25.0518045,121.5569367,"東勢里"
"399",24571985,"艾麗萌食品股份有限公司","臺北市士林區中山北路6段43之2號1-2樓","No. 43, Section 6, Zhongshan N Rd, Shilin District, Taipei City, Taiwan 111",25.1038278,121.524805,"德行里"
"400",24572154,"凱諾音樂文化事業有限公司","臺北市北投區文林北路80巷59弄9號2樓","No. 9, Alley 59, Lane 80, Wenlin N Rd, Beitou District, Taipei City, Taiwan 112",25.1065423,121.5192276,"建民里"
"401",24572197,"看見台灣有限公司","臺北市松山區南京東路3段337號5樓","No. 337, Section 3, Nanjing E Rd, Songshan District, Taipei City, Taiwan 105",25.052006,121.548289,"中正里"
"402",24572443,"台灣<U+770F>像飯店有限公司","臺北市大同區保安街11號及13號","No. 11, Bao'an St, Datong District, Taipei City, Taiwan 103",25.059254,121.51321,"延平里"
"403",24572458,"台灣印像飯店有限公司","臺北市大同區保安街11號及13號","No. 11, Bao'an St, Datong District, Taipei City, Taiwan 103",25.059254,121.51321,"延平里"
"404",24573153,"華御股份有限公司","臺北市中山區南京東路2段160號6樓","No. 160, Section 2, Nanjing E Rd, Zhongshan District, Taipei City, Taiwan 104",25.05173,121.534454,"朱園里"
"405",24573267,"森果國際有限公司","臺北市松山區光復南路6巷32號","No. 32, Lane 6, Guangfu S Rd, Songshan District, Taipei City, Taiwan 105",25.0474083,121.5567892,"復建里"
"406",24573484,"天泰禮儀有限公司","臺北市大安區信義路2段72號地下","Section 2, Xinhai Rd, Da’an District, Taipei City, Taiwan 106",25.021852,121.5387914,"Taipei City"
"407",24573647,"大格文創有限公司","臺北市大安區通化街267巷5之1號","106, Taiwan, Taipei City, Da’an District, 通化街267巷5-1號",25.0256436,121.5526963,"法治里"
"408",24574532,"梅圓國際娛樂有限公司","臺北市松山區復興北路1號15樓之5","No. 1, Fuxing N Rd, Songshan District, Taipei City, Taiwan 105",25.0480218,121.5443569,"中正里"
"409",24575096,"衣樂網資訊有限公司","臺北市士林區中正路268號3樓之1","No. 268, Zhongzheng Rd, Shilin District, Taipei City, Taiwan 111",25.0951097,121.5242123,"福佳里"
"410",24576010,"博勝文創事業股份有限公司","臺北市大同區承德路3段120號","No. 120, Section 3, Chengde Rd, Datong District, Taipei City, Taiwan 103",25.0672184,121.518114,"斯文里"
"411",24576341,"知己天下有限公司","臺北市萬華區長泰街19巷37號2樓","No. 37, Lane 19, Zhangtai St, Wanhua District, Taipei City, Taiwan 108",25.0223086,121.5009283,"壽德里"
"412",24576460,"匯陽事業股份有限公司","臺北市內湖區陽光街383號6樓","No. 383, Yangguang St, Neihu District, Taipei City, Taiwan 114",25.072742,121.5763666,"湖元里"
"413",24577329,"幸福農企業股份有限公司","臺北市信義區松勤街9號4樓","No. 9, Songqin St, Xinyi District, Taipei City, Taiwan 110",25.0320802,121.56132,"景新里"
"414",24578137,"品尚雅仕創意公關顧問有限公司","臺北市大安區復興南路1段107巷5弄21號","No. 21, Alley 5, Lane 107, Section 1, Fuxing S Rd, Da’an District, Taipei City, Taiwan 106",25.0443303,121.5452903,"光武里"
"415",24602100,"臺中租車企業有限公司","臺北市內湖區新湖三路196號3樓","No. 196, Xinhu 3rd Rd, Neihu District, Taipei City, Taiwan 114",25.064949,121.578728,"湖元里"
"416",24628024,"臻誠創意設計有限公司","臺北市信義區松德路12號6樓","No. 12, Songde Rd, Xinyi District, Taipei City, Taiwan 110",25.0397253,121.5774188,"廣居里"
"417",24722689,"芸荷景觀有限公司","臺北市北投區承德路6段335之1號","No. 335, Section 6, Chengde Rd, Beitou District, Taipei City, Taiwan 112",25.10466,121.511544,"建民里"
"418",24730718,"定航雲端有限公司","臺北市中正區中山北路1段2號4樓之2","No. 2, Section 1, Zhongshan North Road, Zhongzheng District, Taipei City, Taiwan 100",25.0460568,121.5194939,"黎明里"
"419",24738182,"風象行銷顧問有限公司","臺北市中山區長安東路1段4之1號1樓","No. 4-1, Section 1, Chang'an E Rd, Zhongshan District, Taipei City, Taiwan 104",25.0495798,121.5221617,"正得里"
"420",24738280,"樂在其中整合行銷有限公司","臺北市信義區虎林街132巷24號1樓","No. 24, Lane 132, Hulin St, Xinyi District, Taipei City, Taiwan 110",25.04042,121.576139,"廣居里"
"421",24739274,"德揚國際實業有限公司","臺北市中山區建國北路1段58號2樓","No. 58, Section 1, Jianguo N Rd, Zhongshan District, Taipei City, Taiwan 104",25.048605,121.5361128,"朱園里"
"422",24739703,"鄭氏創意有限公司","臺北市大安區復興南路2段185之3號","No. 185-3, Section 2, Fuxing S Rd, Da’an District, Taipei City, Taiwan 106",25.0267367,121.5438914,"群賢里"
"423",24740271,"鑫鼎國際股份有限公司","臺北市信義區莊敬路391巷16弄3號4樓","No. 3, Alley 16, Lane 391, Zhuangjing Rd, Xinyi District, Taipei City, Taiwan 110",25.028295,121.566175,"三張里"
"424",24740589,"陳杉號實業股份有限公司","臺北市內湖區內湖路1段285巷63弄9號3樓","No. 9, Alley 63, Lane 285, Section 1, Neihu Rd, Neihu District, Taipei City, Taiwan 114",25.0840705,121.5673355,"西湖里"
"425",24741433,"容禾設計行銷股份有限公司","臺北市大同區延平北路3段62號2樓","No. 62, Section 3, Yanping N Rd, Datong District, Taipei City, Taiwan 103",25.0651834,121.5109705,"隆和里"
"426",24741460,"鯤溟會館股份有限公司","臺北市大同區長安西路145巷3號","No. 3, Lane 145, Chang'an W Rd, Datong District, Taipei City, Taiwan 103",25.051705,121.51497,"建巨"
"427",24741519,"慕尚喜堂國際婚禮服務股份有限公司","臺北市大安區敦化南路1段205號14樓之3","No. 205, Section 1, Dunhua S Rd, Da’an District, Taipei City, Taiwan 106",25.0420039,121.549308,"建安里"
"428",24742215,"千鈞演藝經紀有限公司","臺北市中山區松江路22號3樓之3","No. 22, Songjiang Rd, Zhongshan District, Taipei City, Taiwan 104",25.0468583,121.5327548,"興亞里"
"429",24743283,"八魁文創科技有限公司","臺北市大安區新生南路3段46號1樓","No. 46, Section 3, Xinsheng S Rd, Da’an District, Taipei City, Taiwan 106",25.0213674,121.5339657,"大學里"
"430",24743615,"魔術光影有限公司","臺北市文山區興隆路2段203巷6弄3號","No. 3, Alley 6, Lane 203, Section 2, Xinglong Rd, Wenshan District, Taipei City, Taiwan 116",25.0017127,121.5492442,"興邦里"
"431",24743875,"德晏整合行銷有限公司","臺北市信義區忠孝東路5段1-8號2樓","No. 1-8, Section 5, Zhongxiao E Rd, Xinyi District, Taipei City, Taiwan 110",25.0413853,121.5652569,"興雅里"
"432",24744065,"好好娛樂有限公司","臺北市大安區敦化南路1段294號11樓之1","No. 294, Section 1, Dunhua S Rd, Da’an District, Taipei City, Taiwan 106",25.0361154,121.5482165,"德安里"
"433",24744451,"宏展景觀設計有限公司","臺北市士林區華榮街9號2樓","No. 9, Huarong St, Shilin District, Taipei City, Taiwan 111",25.095357,121.5235105,"福佳里"
"434",24750426,"北極熊數位影像有限公司","臺北市南港區成功路1段82巷7號","No. 7, Lane 82, Section 1, Chenggong Rd, Nangang District, Taipei City, Taiwan 115",25.05758,121.5921384,"西新里"
"435",24751760,"京荷國際行銷股份有限公司","臺北市大同區華陰街91號7樓之3","No. 91, Huayin St, Datong District, Taipei City, Taiwan 103",25.0498408,121.5175818,"建明里"
"436",24752043,"康柏數位行銷有限公司","臺北市大安區忠孝東路3段305號6樓之1","No. 305, Section 3, Zhongxiao E Rd, Da’an District, Taipei City, Taiwan 106",25.0418645,121.5435762,"誠安里"
"437",24752249,"慈安人本實業有限公司","臺北市中正區八德路1段46號9樓","No. 46, Section 1, Bade Rd, Zhongzheng District, Taipei City, Taiwan 100",25.0437396,121.5308224,"梅花里"
"438",24752347,"菁萃藝術有限公司","臺北市信義區信義路5段8巷13號14樓","No. 13, Section 5, Xinyi Rd, Xinyi District, Taipei City, Taiwan 110",25.0329504,121.567273,"西村里"
"439",24752368,"好的文創有限公司","臺北市信義區忠孝東路5段364號3樓","No. 364, Section 5, Zhongxiao E Rd, Xinyi District, Taipei City, Taiwan 110",25.04072,121.573744,"廣居里"
"440",24752846,"佳朋數位印刷有限公司","臺北市中山區南京東路2段101號11樓","No. 101, Section 2, Nanjing E Rd, Zhongshan District, Taipei City, Taiwan 104",25.0522852,121.5326555,"中吉里"
"441",24753937,"樂愷生活有限公司","臺北市松山區民生東路4段80巷11弄5號","No. 5, Alley 11, Lane 80, Section 4, Minsheng E Rd, Songshan District, Taipei City, Taiwan 105",25.0567524,121.5533735,"東昌里"
"442",24754083,"正安生命禮儀有限公司","臺北市大安區信義路2段72號地下","Section 2, Xinhai Rd, Da’an District, Taipei City, Taiwan 106",25.021852,121.5387914,"Taipei City"
"443",24754422,"宜大立餐飲事業有限公司","臺北市松山區慶城街16巷16號1樓","No. 16, Lane 16, Qingcheng St, Songshan District, Taipei City, Taiwan 105",25.0528339,121.5458874,"中正里"
"444",24754582,"粉黃整合影音有限公司","臺北市內湖區內湖路3段72巷63號9樓","No. 63, Lane 72, Section 3, Neihu Rd, Neihu District, Taipei City, Taiwan 114",25.0883733,121.5910551,"碧山里"
"445",24754680,"俱權國際有限公司","臺北市文山區羅斯福路5段192巷25號1樓","No. 25, Lane 192, Section 5, Roosevelt Rd, Wenshan District, Taipei City, Taiwan 116",25.0033648,121.5369765,"萬年里"
"446",24754909,"天井企管顧問有限公司","臺北市中山區伊通街58號4樓","No. 58, Yitong St, Zhongshan District, Taipei City, Taiwan 104",25.0515222,121.5346333,"朱園里"
"447",24755153,"朗朗有限公司","臺北市松山區光復南路6巷55號","No. 55, Lane 6, Guangfu S Rd, Songshan District, Taipei City, Taiwan 105",25.0475626,121.5564209,"復建里"
"448",24755359,"勁力運動股份有限公司","臺北市內湖區東湖路106巷9弄25號4樓","No. 25, Alley 9, Lane 106, Donghu Rd, Neihu District, Taipei City, Taiwan 114",25.067953,121.6136843,"五分里"
"449",24756054,"星創有限公司","臺北市中山區南京東路2段95號11樓","No. 95, Section 2, Nanjing E Rd, Zhongshan District, Taipei City, Taiwan 104",25.0521967,121.5321835,"中吉里"
"450",24756060,"寫憶文化創意有限公司","臺北市文山區羅斯福路6段306之3號","No. 306, Section 6, Roosevelt Rd, Wenshan District, Taipei City, Taiwan 116",24.9906617,121.5396503,"景美里"
"451",24756081,"寶莘有限公司","臺北市松山區民生東路5段137巷4弄18號","No. 18, Alley 4, Lane 137, Section 5, Minsheng E Rd, Songshan District, Taipei City, Taiwan 105",25.0597277,121.5624289,"三民里"
"452",24756287,"旺世代有限公司","臺北市松山區南京東路5段16號11樓","No. 16, Section 5, Nanjing E Rd, Songshan District, Taipei City, Taiwan 105",25.0513242,121.5588287,"吉祥里"
"453",24756505,"台灣小鎮國際投資開發股份有限公司","臺北市中山區林森北路575號7樓之11","No. 575, Linsen N Rd, Zhongshan District, Taipei City, Taiwan 104",25.0650625,121.5258144,"晴光里"
"454",24757119,"動靜專案整合有限公司","臺北市文山區保儀路124-1號2樓","No. 124-1, Baoyi Rd, Wenshan District, Taipei City, Taiwan 116",24.984449,121.566197,"順興里"
"455",24757292,"光創演繹有限公司","臺北市信義區中坡南路201巷10號","No. 10, Lane 201, Zhongpo S Rd, Xinyi District, Taipei City, Taiwan 110",25.0415516,121.5858899,"中行里"
"456",24759778,"芢薪花研有限公司","臺北市士林區天母北路3號2樓","No. 3, Tianmu N Rd, Shilin District, Taipei City, Taiwan 111",25.11894,121.526336,"天玉里"
"457",24761900,"星橋國際行銷有限公司","臺北市中山區長安東路2段169號4樓","No. 169, Section 2, Chang'an E Rd, Zhongshan District, Taipei City, Taiwan 104",25.048551,121.5407856,"Zhongshan District"
"458",24762062,"利昂創思有限公司","臺北市大安區光復南路412號7樓之2","No. 412, Guangfu S Rd, Da’an District, Taipei City, Taiwan 106",25.0366434,121.5573173,"光信里"
"459",24763442,"好食國際文化有限公司","臺北市大安區忠孝東路4段248巷3號1樓","No. 3, Lane 248, Section 4, Zhongxiao E Rd, Da’an District, Taipei City, Taiwan 106",25.0407657,121.5542503,"車層里"
"460",24763457,"威整合運動股份有限公司","臺北市松山區八德路3段12巷16弄8號(1樓)、10號(1樓)","No. 8, Alley 16, Lane 12, Section 3, Bade Rd, Songshan District, Taipei City, Taiwan 105",25.0472054,121.5501721,"敦化里"
"461",24765201,"寶萊鎢國際有限公司","臺北市內湖區內湖路2段352號5樓之4","No. 352, Section 2, Neihu Rd, Neihu District, Taipei City, Taiwan 114",25.0819923,121.5904229,"內湖里"
"462",24765390,"傑出國際文創有限公司","臺北市中山區南京東路2段137號14樓","No. 137, Section 2, Nanjing E Rd, Zhongshan District, Taipei City, Taiwan 104",25.052339,121.535082,"中央里"
"463",24765693,"華禹企業有限公司","臺北市大安區復興南路1段293號3樓之1","No. 293, Section 1, Fuxing S Rd, Da’an District, Taipei City, Taiwan 106",25.0352575,121.5439336,"仁慈里"
"464",24765770,"主筆文創股份有限公司","臺北市松山區敦化北路207號13樓之4","No. 207, Dunhua N Rd, Songshan District, Taipei City, Taiwan 105",25.0578463,121.5493281,"精忠里"
"465",24765960,"親蜜國際股份有限公司","臺北市大安區忠孝東路4段216巷33弄14號1樓","No. 14, Alley 33, Lane 216, Section 4, Zhongxiao E Rd, Da’an District, Taipei City, Taiwan 106",25.0392945,121.5537013,"車層里"
"466",24766172,"天璽時尚造型有限公司","臺北市大同區承德路3段263號2樓之2","No. 263, Section 3, Chengde Rd, Datong District, Taipei City, Taiwan 103",25.0722845,121.5190159,"保安里"
"467",24766193,"天地養時尚藝術文化有限公司","臺北市大同區庫倫街51-5號","No. 51, Kulun St, Datong District, Taipei City, Taiwan 103",25.0720501,121.5192592,"保安里"
"468",24766807,"運思國際文教股份有限公司","臺北市萬華區莒光路336號6樓","No. 336, Juguang Rd, Wanhua District, Taipei City, Taiwan 108",25.0312825,121.4973054,"雙園里"
"469",24767398,"臻囍國際股份有限公司","臺北市大安區信義路4段398號1、2樓","No. 398, Section 4, Xinyi Rd, Da’an District, Taipei City, Taiwan 106",25.0328668,121.5563942,"通化里"
"470",24767670,"唯妳婚紗有限公司","臺北市中山區長安東路2段199號2樓之2","No. 199, Section 2, Chang'an E Rd, Zhongshan District, Taipei City, Taiwan 104",25.0482808,121.5433968,"力行里"
"471",24768208,"時代之峰整合行銷有限公司","臺北市大安區信義路3段200號7樓之1","No. 200, Section 3, Xinyi Rd, Da’an District, Taipei City, Taiwan 106",25.0331896,121.5434075,"龍圖里"
"472",24768299,"翰躍國際有限公司","臺北市大安區忠孝東路4段221號10樓","No. 221, Section 4, Zhongxiao E Rd, Da’an District, Taipei City, Taiwan 106",25.0416543,121.5528834,"建安里"
"473",24768586,"新國都股份有限公司","臺北市大同區太原路64號1樓","No. 64, Taiyuan Rd, Datong District, Taipei City, Taiwan 103",25.0516582,121.515466,"建巨"
"474",24768827,"晶采事業有限公司","臺北市中山區雙城街49巷12之1號1樓","No. 12-1, Lane 49, Shuangcheng St, Zhongshan District, Taipei City, Taiwan 104",25.0678245,121.5252342,"圓山里"
"475",24768994,"成馬赫有限公司","臺北市大安區復興南路1段340巷8號","No. 92-8, Section 1, Fuxing S Rd, Da’an District, Taipei City, Taiwan 106",25.043442,121.543502,"誠安里"
"476",24769255,"珍愛時刻國際有限公司","臺北市大安區濟南路3段39號7樓","No. 39, Section 3, Jinan Rd, Da’an District, Taipei City, Taiwan 106",25.0403263,121.5359714,"民輝里"
"477",24769488,"泰熙國際資訊有限公司","臺北市大同區華陰街91號13樓之1","No. 91, Huayin St, Datong District, Taipei City, Taiwan 103",25.0498408,121.5175818,"建明里"
"478",24769852,"秉達國際展覽有限公司","臺北市大安區和平東路1段182號10樓","No. 182, Section 1, Heping E Rd, Da’an District, Taipei City, Taiwan 106",25.026285,121.529753,"龍泉里"
"479",24770540,"夢想誌國際股份有限公司","臺北市中山區遼寧街201巷11號","No. 11, Lane 201, Liaoning St, Zhongshan District, Taipei City, Taiwan 104",25.0543109,121.543088,"復華里"
"480",24771029,"峊華實業股份有限公司","臺北市大安區光復南路102號B1","No. 102, Guangfu S Rd, Da’an District, Taipei City, Taiwan 106",25.0435228,121.5574896,"華聲里"
"481",24771132,"司渤股份有限公司","臺北市中山區松江路3號3樓之5","No. 3, Songjiang Rd, Zhongshan District, Taipei City, Taiwan 104",25.0459971,121.5331202,"朱園里"
"482",24772033,"光合箱子有限公司","臺北市松山區南京東路3段303巷8弄5號","No. 5, Alley 8, Lane 303, Section 3, Nanjing E Rd, Songshan District, Taipei City, Taiwan 105",25.053054,121.547035,"中正里"
"483",24772081,"雲天使科技有限公司","臺北市大安區忠孝東路4段206之1號4樓","No. 206-1, Section 4, Zhongxiao E Rd, Da’an District, Taipei City, Taiwan 106",25.041193,121.552351,"建倫里"
"484",24773862,"庫爾特執行有限公司","臺北市大同區寧夏路63號7樓之1","No. 63, Ningxia Rd, Datong District, Taipei City, Taiwan 103",25.058244,121.5152833,"雙連里"
"485",24773997,"東方娛樂事業有限公司","臺北市松山區南京東路4段47號2樓之1","No. 47, Section 4, Nanjing E Rd, Songshan District, Taipei City, Taiwan 105",25.0519331,121.5508394,"中華里"
"486",24774052,"芷在意完美國際事業有限公司","臺北市信義區林口街114巷3號","No. 3, Lane 114, Linkou St, Xinyi District, Taipei City, Taiwan 110",25.0396947,121.5803499,"大仁里"
"487",24774807,"艾爾活動企劃國際有限公司","臺北市大安區羅斯福路3段325號4樓之7","No. 325, Section 3, Roosevelt Rd, Da’an District, Taipei City, Taiwan 106",25.017152,121.532209,"大學里"
"488",24774813,"豐禾創意整合行銷有限公司","臺北市中正區羅斯福路1段83巷7號","No. 7, Lane 83, Section 1, Roosevelt Rd, Zhongzheng District, Taipei City, Taiwan 100",25.0313377,121.5200382,"新營里"
"489",24775475,"凱伯公關顧問有限公司","臺北市大安區仁愛路4段107號7樓","No. 107, Section 4, Ren'ai Rd, Da’an District, Taipei City, Taiwan 106",25.0383825,121.5496824,"建倫里"
"490",24775828,"天使站前商旅有限公司","臺北市中正區衡陽路51號2樓之2","No. 51, Hengyang Rd, Zhongzheng District, Taipei City, Taiwan 100",25.042403,121.512201,"光復里"
"491",24777500,"合旺餐飲管理顧問股份有限公司","臺北市中山區南京東路2段124號11樓","No. 124, Section 2, Nanjing E Rd, Zhongshan District, Taipei City, Taiwan 104",25.0517453,121.5333468,"朱園里"
"492",24777678,"可同精品有限公司","臺北市中正區中山北路1段2號4樓之2","No. 2, Section 1, Zhongshan North Road, Zhongzheng District, Taipei City, Taiwan 100",25.0460568,121.5194939,"黎明里"
"493",24778748,"無二行有限公司","臺北市中正區中山北路1段2號4樓之2","No. 2, Section 1, Zhongshan North Road, Zhongzheng District, Taipei City, Taiwan 100",25.0460568,121.5194939,"黎明里"
"494",24778846,"見方創意有限公司","臺北市松山區民生東路5段202號20樓之11","No. 202, Section 5, Minsheng E Rd, Songshan District, Taipei City, Taiwan 105",25.0582514,121.5645057,"富泰里"
"495",24778873,"樂優坊有限公司","臺北市內湖區成功路5段460號11樓","No. 460, Section 5, Chenggong Rd, Neihu District, Taipei City, Taiwan 114",25.0741127,121.6066108,"金湖里"
"496",24778971,"羅迪國際餐飲有限公司","臺北市大安區延吉街131巷27號","No. 27, Lane 131, Yanji St, Da’an District, Taipei City, Taiwan 106",25.0428672,121.5553123,"華聲里"
"497",24779084,"習作有限公司","臺北市中山區復興南路1段36號2樓","No. 36, Section 1, Fuxing S Rd, Zhongshan District, Taipei City, Taiwan 104",25.046186,121.543653,"埤頭里"
"498",24779991,"昕禧工程企業有限公司","臺北市中正區羅斯福路2段14號12樓","No. 14, Section 2, Roosevelt Rd, Zhongzheng District, Taipei City, Taiwan 100",25.0287289,121.5208819,"南福里"
"499",24780287,"格瑞弗電子商務有限公司","臺北市信義區忠孝東路5段510號15樓","No. 510, Section 5, Zhongxiao E Rd, Xinyi District, Taipei City, Taiwan 110",25.041154,121.578971,"松光里"
"500",24780414,"蜜亞凱文有限公司","臺北市松山區復興北路231巷26號1樓","No. 26, Lane 231, Fuxing N Rd, Songshan District, Taipei City, Taiwan 105",25.056868,121.54559,"松基里"
"501",24780744,"趁勢娛樂有限公司","臺北市大安區敦化南路1段184號11樓","No. 184, Section 1, Dunhua S Rd, Da’an District, Taipei City, Taiwan 106",25.04284,121.548495,"光武里"
"502",24781960,"五光十色創意行銷有限公司","臺北市信義區永吉路340號14樓","No. 340, Yongji Rd, Xinyi District, Taipei City, Taiwan 110",25.045332,121.57602,"四維里"
"503",24782779,"好感行銷策劃有限公司","臺北市北投區崇仁路1段157巷9號5樓","No. 9, Lane 157, Section 1, Chongren Rd, Beitou District, Taipei City, Taiwan 112",25.1235229,121.5026229,"八仙里"
"504",24782911,"鑫宗富企業股份有限公司","臺北市松山區南京東路4段11號4樓","No. 11, Section 4, Nanjing E Rd, Songshan District, Taipei City, Taiwan 105",25.0519794,121.5497353,"中華里"
"505",24783284,"巧果娛樂有限公司","臺北市信義區光復南路495號","No. 495, Guangfu S Rd, Xinyi District, Taipei City, Taiwan 110",25.0324176,121.5575934,"中興里"
"506",24784220,"儲房咖啡館有限公司","臺北市中山區建國北路1段67巷29號","No. 29, Lane 67, Section 1, Jianguo N Rd, Zhongshan District, Taipei City, Taiwan 104",25.0509697,121.5382872,"力行里"
"507",24785488,"祥發有限公司","臺北市大同區迪化街1段356之1號","No. 356, Section 1, Dihua St, Datong District, Taipei City, Taiwan 103",25.0626334,121.5091974,"南芳里"
"508",24785522,"蘭斯洛攝影有限公司","臺北市大安區信義路4段45號11樓之2","No. 45, Section 4, Xinyi Rd, Da’an District, Taipei City, Taiwan 106",25.0335717,121.5449681,"仁慈里"
"509",24786402,"文漾思維行銷股份有限公司","臺北市大安區忠孝東路4段101巷45號3樓","No. 45, Lane 101, Section 4, Zhongxiao E Rd, Da’an District, Taipei City, Taiwan 106",25.04331,121.548217,"光武里"
"510",24786803,"赫赫資訊有限公司","臺北市大安區安和路2段23巷6號1樓","No. 6, Lane 23, Section 2, Anhe Rd, Da’an District, Taipei City, Taiwan 106",25.0320439,121.5529563,"通安里"
"511",24787205,"愛人料理有限公司","臺北市信義區忠孝東路5段1之10號11樓","No. 1-10, Section 5, Zhongxiao E Rd, Xinyi District, Taipei City, Taiwan 110",25.041445,121.565292,"興雅里"
"512",24787599,"彩球有限公司","臺北市大安區信義路2段72號地下","Section 2, Xinhai Rd, Da’an District, Taipei City, Taiwan 106",25.021852,121.5387914,"Taipei City"
"513",24787887,"朗貝爾國際有限公司","臺北市中正區八德路1段46號9樓","No. 46, Section 1, Bade Rd, Zhongzheng District, Taipei City, Taiwan 100",25.0437396,121.5308224,"梅花里"
"514",24789793,"香港商訂造皇有限公司","臺北市大同區承德路3段58號9樓之4","No. 58, Section 3, Chengde Rd, Datong District, Taipei City, Taiwan 103",25.0652336,121.5181066,"蓬萊里"
"515",24791622,"香港商宏逸精品有限公司","臺北市松山區敦化北路170號3樓","No. 170, Dunhua N Rd, Songshan District, Taipei City, Taiwan 105",25.0564859,121.5486072,"松基里"
"516",24796274,"新加坡商拍拖有限公司","臺北市大安區復興南路1段253巷8號4樓之3","No. 8, Lane 253, Section 1, Fuxing S Rd, Da’an District, Taipei City, Taiwan 106",25.0367256,121.5441145,"仁慈里"
"517",24928198,"東美出版事業有限公司","臺北市中正區中華路1段59號3樓之11","No. 59, Section 1, Zhonghua Rd, Zhongzheng District, Taipei City, Taiwan 100",25.0414376,121.5083814,"建國里"
"518",24929056,"最美一刻婚紗攝影有限公司","臺北市大安區忠孝東路4段162號4樓之3","No. 162, Section 4, Zhongxiao E Rd, Da’an District, Taipei City, Taiwan 106",25.0412914,121.5502887,"建倫里"
"519",24929112,"荻漾禮服有限公司","臺北市松山區八德路4段453巷7號2樓","No. 7, Section 4, Bade Rd, Songshan District, Taipei City, Taiwan 105",25.0484113,121.558015,"吉祥里"
"520",24929274,"大豐整合顧問有限公司","臺北市大安區金華街199巷3弄2號4樓","No. 2, Alley 3, Lane 199, Jinhua St, Da’an District, Taipei City, Taiwan 106",25.030589,121.52826,"永康里"
"521",24929529,"常樂公關顧問有限公司","臺北市南港區松河街292號4樓之1","No. 292, Songhe St, Nangang District, Taipei City, Taiwan 115",25.0520275,121.5804837,"重陽里"
"522",24929555,"貳<U+53C1>整合行銷有限公司","臺北市南港區松河街292號4樓之1","No. 292, Songhe St, Nangang District, Taipei City, Taiwan 115",25.0520275,121.5804837,"重陽里"
"523",24930286,"旋樂玩家創意活動有限公司","臺北市內湖區成功路4段332號4樓","No. 332, Section 4, Chenggong Rd, Neihu District, Taipei City, Taiwan 114",25.0849058,121.5992072,"秀湖里"
"524",24931399,"艾米文創有限公司","臺北市萬華區環河南路2段125巷7弄16號1樓","No. 16, Alley 7, Lane 125, Section 2, Huanhe S Rd, Wanhua District, Taipei City, Taiwan 108",25.0345459,121.4942714,"糖部里"
"525",24931503,"樂米創意有限公司","臺北市中正區師大路170號5樓之2","No. 170, Shida Rd, Zhongzheng District, Taipei City, Taiwan 100",25.021143,121.52545,"頂東里"
"526",24931898,"龍安國際開發有限公司","臺北市松山區南京東路4段197號9樓之1","No. 197, Section 4, Nanjing E Rd, Songshan District, Taipei City, Taiwan 105",25.0518045,121.5569367,"東勢里"
"527",24932209,"古香餐飲股份有限公司","臺北市中山區撫順街10號","No. 10, Fushun St, Zhongshan District, Taipei City, Taiwan 104",25.06356,121.521104,"集英里"
"528",24932550,"好日子國際有限公司","臺北市中山區龍江路120巷7號","No. 7, Lane 120, Longjiang Rd, Zhongshan District, Taipei City, Taiwan 104",25.0536887,121.5401408,"復華里"
"529",24932600,"拍付國際資訊股份有限公司","臺北市大安區敦化南路2段105號12樓","No. 105, Section 2, Dunhua S Rd, Da’an District, Taipei City, Taiwan 106",25.0284459,121.549215,"義安里"
"530",24932622,"數位魔方科技股份有限公司","臺北市松山區南京東路5段308號8樓之1","No. 308, Section 5, Nanjing E Rd, Songshan District, Taipei City, Taiwan 105",25.051107,121.567822,"新聚里"
"531",24932778,"星河廣告媒體事業有限公司","臺北市大安區忠孝東路4段112號5樓之6","No. 112, Section 4, Zhongxiao E Rd, Da’an District, Taipei City, Taiwan 106",25.041364,121.546893,"仁愛里"
"532",24933501,"力達光電媒體科技有限公司","臺北市松山區八德路4段277號7樓","No. 277, Section 4, Bade Rd, Songshan District, Taipei City, Taiwan 105",25.04914,121.5657727,"新聚里"
"533",24933875,"柏維斯國際設計有限公司","臺北市南港區忠孝東路6段467號2樓","No. 467, Section 6, Zhongxiao E Rd, Nangang District, Taipei City, Taiwan 115",25.0510314,121.594517,"西新里"
"534",24934699,"東滋音樂有限公司","臺北市中正區南昌路1段37號4樓","No. 37, Section 1, Nanchang Rd, Zhongzheng District, Taipei City, Taiwan 100",25.031631,121.5170657,"龍福里"
"535",24934874,"盛會娛樂有限公司","臺北市中正區忠孝西路1段33號7樓","No. 33, Section 1, Zhongxiao W Rd, Zhongzheng District, Taipei City, Taiwan 100",25.0460657,121.5187553,"黎明里"
"536",24934895,"英華國際智能有限公司","臺北市松山區敦化北路207號9樓之3","No. 207, Dunhua N Rd, Songshan District, Taipei City, Taiwan 105",25.0578463,121.5493281,"精忠里"
"537",24935114,"潮流娛樂事業有限公司","臺北市中正區水源路33巷14號","No. 14, Lane 33, Shuiyuan Rd, Zhongzheng District, Taipei City, Taiwan 100",25.0184956,121.5245065,"林興里"
"538",24935276,"鐵人文創娛樂有限公司","臺北市大安區仁愛路4段85號3樓","No. 85, Section 4, Ren'ai Rd, Da’an District, Taipei City, Taiwan 106",25.0382837,121.5478654,"仁愛里"
"539",24935819,"兆遠資本股份有限公司","臺北市中山區南京東路1段34號7樓","No. 34, Section 1, Nanjing E Rd, Zhongshan District, Taipei City, Taiwan 104",25.051982,121.523815,"正得里"
"540",24936459,"天使松山信義旗艦商旅有限公司","臺北市中正區杭州南路1段6巷5號2樓","No. 5, Lane 6, Section 1, Hangzhou S Rd, Zhongzheng District, Taipei City, Taiwan 100",25.0436381,121.5256559,"幸福里"
"541",24936937,"凱格蘭創意整合行銷有限公司","臺北市中山區中山北路3段25號9樓之5","No. 25, Section 3, Zhongshan N Rd, Zhongshan District, Taipei City, Taiwan 104",25.065011,121.522374,"晴光里"
"542",24936964,"玩美影像有限公司","臺北市信義區基隆路1段155號13樓之6","No. 155, Section 1, Keelung Rd, Xinyi District, Taipei City, Taiwan 110",25.042178,121.565396,"興雅里"
"543",24937302,"婚戀基因國際股份有限公司","臺北市大安區忠孝東路4段107號12樓","No. 107, Section 4, Zhongxiao E Rd, Da’an District, Taipei City, Taiwan 106",25.0417523,121.5483089,"光武里"
"544",24938127,"真我形象有限公司","臺北市中正區愛國東路24號4樓","No. 24, Aiguo E Rd, Zhongzheng District, Taipei City, Taiwan 100",25.0341606,121.5179438,"新營里"
"545",24938251,"酷比創意有限公司","臺北市中山區南京東路2段101號11樓","No. 101, Section 2, Nanjing E Rd, Zhongshan District, Taipei City, Taiwan 104",25.0522852,121.5326555,"中吉里"
"546",24938512,"歆胤臻園有限公司","臺北市中山區民權東路2段200號","No. 200, Section 2, Minquan E Rd, Zhongshan District, Taipei City, Taiwan 104",25.062161,121.5362925,"松江里"
"547",24938787,"匯威國際企業有限公司","臺北市信義區基隆路1段420號12樓之1","No. 420, Section 1, Keelung Rd, Xinyi District, Taipei City, Taiwan 110",25.034079,121.559883,"中興里"
"548",24938858,"瑪特有限公司","臺北市中山區復興北路202號1樓","No. 202, Fuxing N Rd, Zhongshan District, Taipei City, Taiwan 104",25.0554419,121.543638,"龍洲里"
"549",24939630,"梵斯國際有限公司","臺北市大安區和平東路2段201號11樓","No. 201, Section 2, Heping E Rd, Da’an District, Taipei City, Taiwan 106",25.0252437,121.5423459,"龍生里"
"550",24939759,"嘉嘉顧問有限公司","臺北市萬華區貴陽街2段175號4樓","No. 175, Section 2, Guiyang St, Wanhua District, Taipei City, Taiwan 108",25.0402407,121.5001939,"菜園里"
"551",24940117,"疑問詞科技有限公司","臺北市士林區承德路4段237號9樓","No. 237, Section 4, Chengde Rd, Shilin District, Taipei City, Taiwan 111",25.0885892,121.5219998,"義信里"
"552",24940215,"吉晶國際有限公司","臺北市大同區民樂街150號2樓之1","No. 150, Minle St, Datong District, Taipei City, Taiwan 103",25.0604235,121.5103657,"大有里"
"553",24940432,"義美吉盛股份有限公司","臺北市大安區信義路2段88號9樓","No. 88, Section 2, Xinyi Rd, Da’an District, Taipei City, Taiwan 106",25.0339401,121.5267933,"光明里"
"554",24941045,"泰樂整合行銷有限公司","臺北市松山區敦化南路1段57號8樓之6","No. 57, Section 1, Dunhua S Rd, Songshan District, Taipei City, Taiwan 105",25.0458502,121.5493126,"敦化里"
"555",24942635,"孟田國際娛樂傳媒有限公司","臺北市大安區敦化南路2段97號33樓","No. 97, Section 2, Dunhua S Rd, Da’an District, Taipei City, Taiwan 106",25.0290164,121.5491763,"義安里"
"556",24942889,"欣怡視聽有限公司","臺北市松山區復興北路1號9樓之3","No. 1, Fuxing N Rd, Songshan District, Taipei City, Taiwan 105",25.0480218,121.5443569,"中正里"
"557",24943655,"采配有限公司","臺北市中山區中山北路2段33號10樓","No. 33, Section 2, Zhongshan N Rd, Zhongshan District, Taipei City, Taiwan 104",25.0657803,121.5226122,"晴光里"
"558",24943698,"凱泰國際多媒體有限公司","臺北市中山區松江路122號11樓","No. 122, Songjiang Rd, Zhongshan District, Taipei City, Taiwan 104",25.0524582,121.5328065,"中吉里"
"559",24944660,"花樣子股份有限公司","臺北市大安區仁愛路4段109號8樓","No. 109, Section 4, Ren'ai Rd, Da’an District, Taipei City, Taiwan 106",25.038103,121.55008,"建倫里"
"560",24945112,"人和休閒開發有限公司","臺北市信義區中坡南路24號2樓","No. 24, Zhongpo S Rd, Xinyi District, Taipei City, Taiwan 110",25.0432596,121.5828844,"大道里"
"561",24945350,"大心新創國際有限公司","臺北市大安區羅斯福路3段297之5號3樓","No. 297-5, Section 3, Roosevelt Rd, Da’an District, Taipei City, Taiwan 106",25.017543,121.531808,"大學里"
"562",24945936,"騰昌有限公司","臺北市中山區南京東路3段21號10樓","No. 21, Section 3, Nanjing E Rd, Zhongshan District, Taipei City, Taiwan 104",25.0523129,121.537779,"復華里"
"563",24946436,"贏家創意有限公司","臺北市中山區南京東路1段34號7樓","No. 34, Section 1, Nanjing E Rd, Zhongshan District, Taipei City, Taiwan 104",25.051982,121.523815,"正得里"
"564",24946787,"美好文化有限公司","臺北市信義區忠孝東路5段410號12樓","No. 410, Section 5, Zhongxiao E Rd, Xinyi District, Taipei City, Taiwan 110",25.040706,121.575097,"廣居里"
"565",24947287,"明鼎文化創意有限公司","臺北市信義區基隆路2段33號12樓之2","No. 33, Section 2, Keelung Rd, Xinyi District, Taipei City, Taiwan 110",25.0315192,121.5589212,"景聯里"
"566",24947435,"品行良好整合行銷有限公司","臺北市信義區中坡南路184號1樓","No. 184, Zhongpo S Rd, Xinyi District, Taipei City, Taiwan 110",25.038735,121.58392,"中坡里"
"567",24947913,"艾瓦整合設計有限公司","臺北市中山區南京東路2段101號11樓","No. 101, Section 2, Nanjing E Rd, Zhongshan District, Taipei City, Taiwan 104",25.0522852,121.5326555,"中吉里"
"568",24948716,"亮相娛樂有限公司","臺北市松山區八德路3段12巷20弄9號1樓","No. 9, Alley 20, Lane 12, Section 3, Bade Rd, Songshan District, Taipei City, Taiwan 105",25.046875,121.550314,"敦化里"
"569",24949406,"歌德國際花藝顧問有限公司","臺北市中山區林森北路100號7樓之1","No. 100, Linsen N Rd, Zhongshan District, Taipei City, Taiwan 104",25.0504932,121.5247181,"正得里"
"570",24949567,"鴻磊不動產管理顧問股份有限公司","臺北市內湖區內湖路1段91巷32號3樓","No. 32, Lane 91, Section 1, Neihu Rd, Neihu District, Taipei City, Taiwan 114",25.0855279,121.5621413,"西康里"
"571",24949980,"賀安生技有限公司","臺北市中山區中山北路1段121巷26號3樓之1","No. 26, Lane 121, Section 1, Zhongshan N Rd, Zhongshan District, Taipei City, Taiwan 104",25.0509805,121.523918,"正得里"
"572",24950281,"福泰生命事業股份有限公司","臺北市中山區民權東路3段4號8樓","No. 4, Section 3, Minquan E Rd, Zhongshan District, Taipei City, Taiwan 104",25.0620174,121.5385499,"江寧里"
"573",24950753,"睫妮絲專業美妝藝術有限公司","臺北市大安區敦化南路1段177巷21號2樓","No. 21, Lane 177, Section 1, Dunhua S Rd, Da’an District, Taipei City, Taiwan 106",25.0431068,121.5504868,"建安里"
"574",24951211,"花齊客有限公司","臺北市松山區光復北路103巷30號2樓","No. 30, Lane 103, Guangfu N Rd, Songshan District, Taipei City, Taiwan 105",25.0509077,121.5591583,"吉祥里"
"575",24951269,"天空地圖有限公司","臺北市中正區忠孝西路1段33號7樓","No. 33, Section 1, Zhongxiao W Rd, Zhongzheng District, Taipei City, Taiwan 100",25.0460657,121.5187553,"黎明里"
"576",24951697,"久久行銷顧問有限公司","臺北市中山區長安東路1段16號3樓","No. 16, Section 1, Chang'an E Rd, Zhongshan District, Taipei City, Taiwan 104",25.049288,121.5234278,"正得里"
"577",24951866,"紅潮雲端影音股份有限公司","臺北市大安區忠孝東路3段96號2樓","No. 96, Section 3, Zhongxiao E Rd, Da’an District, Taipei City, Taiwan 106",25.0415901,121.5362002,"民輝里"
"578",24952719,"杉雲娛樂有限公司","臺北市中山區林森北路107巷62號3樓之1","No. 62, Lane 107, Linsen N Rd, Zhongshan District, Taipei City, Taiwan 104",25.0498188,121.5270076,"正義里"
"579",24952886,"愛美麗視覺影像有限公司","臺北市信義區基隆路2段189號13樓之13","No. 189, Section 2, Keelung Rd, Xinyi District, Taipei City, Taiwan 110",25.0248813,121.5534255,"黎順里"
"580",24953153,"述意股份有限公司","臺北市中正區信義路2段153號","No. 153, Section 2, Xinyi Rd, Zhongzheng District, Taipei City, Taiwan 100",25.0341269,121.528623,"三愛里"
"581",24954104,"原字影像整合行銷有限公司","臺北市信義區莊敬路289巷3弄37號","No. 37, Alley 3, Lane 289, Zhuangjing Rd, Xinyi District, Taipei City, Taiwan 110",25.0296613,121.5626424,"景新里"
"582",24954300,"美麥行銷股份有限公司","臺北市信義區基隆路2段51號4樓之8","No. 51, Section 2, Keelung Rd, Xinyi District, Taipei City, Taiwan 110",25.0309403,121.5585445,"景聯里"
"583",24954836,"盛邦規劃設計顧問有限公司","臺北市松山區八德路2段374號12樓之2","No. 374, Section 2, Bade Rd, Songshan District, Taipei City, Taiwan 105",25.0478905,121.54564,"中崙里"
"584",24954907,"克莉思朵蕾絲有限公司","臺北市北投區大度路怡和巷3弄16號","Section 1, Dadu Rd & 怡和巷 Beitou District, Taipei City, Taiwan 112",25.1214916,121.4957975,"Beitou District"
"585",24955188,"澺思滿有限公司","臺北市信義區基隆路1段155號13樓之6","No. 155, Section 1, Keelung Rd, Xinyi District, Taipei City, Taiwan 110",25.042178,121.565396,"興雅里"
"586",24955785,"法皇創意有限公司","臺北市大安區建國南路2段195號12樓","No. 195, Section 2, Jianguo S Rd, Da’an District, Taipei City, Taiwan 106",25.0273116,121.5381138,"龍生里"
"587",24955928,"佶泰設計有限公司","臺北市士林區大南路373號3樓","No. 373, Danan Rd, Shilin District, Taipei City, Taiwan 111",25.089196,121.5160139,"福中里"
"588",24956601,"秀達人娛樂整合行銷股份有限公司","臺北市中山區長春路378號3樓之1","No. 378, Changchun Rd, Zhongshan District, Taipei City, Taiwan 104",25.054398,121.543129,"復華里"
"589",24956829,"童趣放肆股份有限公司","臺北市松山區八德路4段123號地下1層之3","No. 123, Section 4, Bade Rd, Songshan District, Taipei City, Taiwan 105",25.0486433,121.5619769,"Songshan District"
"590",24956898,"意識數位有限公司","臺北市內湖區新湖三路237號5樓","No. 237, Xinhu 3rd Rd, Neihu District, Taipei City, Taiwan 114",25.0655912,121.5812491,"湖元里"
"591",24958609,"森平房有限公司","臺北市大同區太原路54之1號","No. 54, Taiyuan Rd, Datong District, Taipei City, Taiwan 103",25.051014,121.515292,"建明里"
"592",24958930,"熊屋傳播事業有限公司","臺北市萬華區雙園街150號1樓","No. 150, Shuangyuan St, Wanhua District, Taipei City, Taiwan 108",25.0316313,121.4919027,"綠堤里"
"593",24959065,"天宇國際模特兒經紀有限公司","臺北市中山區復興北路62號3樓之2","No. 62, Fuxing N Rd, Zhongshan District, Taipei City, Taiwan 104",25.0504088,121.5437837,"力行里"
"594",24959451,"益帖國際有限公司","臺北市大安區忠孝東路3段136號11樓","No. 136, Section 3, Zhongxiao E Rd, Da’an District, Taipei City, Taiwan 106",25.041446,121.537672,"義村里"
"595",24962012,"愛唯得網路科技有限公司","臺北市中山區民生西路6號3樓","No. 6, Minsheng W Rd, Zhongshan District, Taipei City, Taiwan 104",25.0577417,121.5223787,"民安里"
"596",24962414,"令可顧問有限公司","臺北市大安區忠孝東路3段136號9樓之5","No. 136, Section 3, Zhongxiao E Rd, Da’an District, Taipei City, Taiwan 106",25.041446,121.537672,"義村里"
"597",24962673,"日日好花有限公司","臺北市中山區建國北路1段67巷29號","No. 29, Lane 67, Section 1, Jianguo N Rd, Zhongshan District, Taipei City, Taiwan 104",25.0509697,121.5382872,"力行里"
"598",24962688,"瑩妃有限公司","臺北市大安區忠孝東路4段162號4樓之7","No. 162, Section 4, Zhongxiao E Rd, Da’an District, Taipei City, Taiwan 106",25.0412914,121.5502887,"建倫里"
"599",24963363,"鴻喜創意行銷有限公司","臺北市大安區敦化南路1段188號5樓","No. 188, Section 1, Dunhua S Rd, Da’an District, Taipei City, Taiwan 106",25.0426818,121.548482,"光武里"
"600",24963531,"昇羽國際有限公司","臺北市南港區南港路3段314巷5號2樓","No. 5, Lane 314, Section 3, Nangang Rd, Nangang District, Taipei City, Taiwan 115",25.0519729,121.5812127,"玉成里"
"601",24963722,"稻川娛樂有限公司","臺北市大安區忠孝東路4段293號6樓之2","No. 293, Section 4, Zhongxiao E Rd, Da’an District, Taipei City, Taiwan 106",25.041628,121.554882,"華聲里"
"602",24964320,"德和有限公司","臺北市大安區仁愛路3段123巷9弄12號1樓","No. 12, Alley 9, Lane 123, Section 3, Ren'ai Rd, Da’an District, Taipei City, Taiwan 106",25.0389391,121.5428361,"義村里"
"603",24964709,"異國娛樂有限公司","臺北市大安區和平東路1段87之1號4樓","No. 87-1, Section 1, Heping E Rd, Da’an District, Taipei City, Taiwan 106",25.02717,121.525663,"錦華里"
"604",24965566,"其樂斯創意行銷有限公司","臺北市中山區長春路78號8樓之5","No. 78, Changchun Rd, Zhongshan District, Taipei City, Taiwan 104",25.0548122,121.5265707,"康樂里"
"605",24965968,"合洋開發實業有限公司","臺北市中正區重慶南路1段49號9樓","No. 49, Section 1, Chongqing S Rd, Zhongzheng District, Taipei City, Taiwan 100",25.0447329,121.513387,"黎明里"
"606",24966122,"歡樂魔法國際行銷有限公司","臺北市大安區樂利路91號5樓","No. 91, Leli Rd, Da’an District, Taipei City, Taiwan 106",25.025642,121.5522104,"法治里"
"607",24966474,"富山坊有限公司","臺北市大同區南京西路163號2樓之57","No. 163, Nanjing W Rd, Datong District, Taipei City, Taiwan 103",25.054087,121.513084,"朝陽里"
"608",24966690,"貞觀租車有限公司","臺北市北投區行義路142之10號地下","No. 142, Xingyi Rd, Beitou District, Taipei City, Taiwan 112",25.1299692,121.5281273,"永和里"
"609",24968542,"宇任投資有限公司","臺北市中山區長安東路2段81號12樓之1","No. 81, Section 2, Chang'an E Rd, Zhongshan District, Taipei City, Taiwan 104",25.0485709,121.5345357,"朱園里"
"610",24968732,"佰摩科技事業股份有限公司","臺北市松山區南京東路4段11號4樓","No. 11, Section 4, Nanjing E Rd, Songshan District, Taipei City, Taiwan 105",25.0519794,121.5497353,"中華里"
"611",24969459,"與相事業有限公司","臺北市中山區建國北路1段55號4樓之5","No. 55, Section 1, Jianguo N Rd, Zhongshan District, Taipei City, Taiwan 104",25.0504435,121.537137,"力行里"
"612",24970239,"梵斯演藝活動有限公司","臺北市中山區松江路185號4樓之4、之5","No. 185, Songjiang Rd, Zhongshan District, Taipei City, Taiwan 104",25.0564886,121.5333489,"中央里"
"613",24970300,"巨光美創意有限公司","臺北市信義區忠孝東路5段1-8號12樓","No. 1-8, Section 5, Zhongxiao E Rd, Xinyi District, Taipei City, Taiwan 110",25.0413853,121.5652569,"興雅里"
"614",24970667,"福德安資產股份有限公司","臺北市中山區民權東路3段4號8樓","No. 4, Section 3, Minquan E Rd, Zhongshan District, Taipei City, Taiwan 104",25.0620174,121.5385499,"江寧里"
"615",24971103,"華采衣有限公司","臺北市大同區寧夏路63號7樓之1","No. 63, Ningxia Rd, Datong District, Taipei City, Taiwan 103",25.058244,121.5152833,"雙連里"
"616",24971125,"酷酷兄弟有限公司","臺北市信義區基隆路2段33號12樓之2","No. 33, Section 2, Keelung Rd, Xinyi District, Taipei City, Taiwan 110",25.0315192,121.5589212,"景聯里"
"617",24971841,"新動力公共關係顧問股份有限公司","臺北市松山區復興南路1段27號9樓","No. 27, Section 1, Fuxing S Rd, Songshan District, Taipei City, Taiwan 105",25.046578,121.5441618,"中崙里"
"618",24973550,"創世紀全球娛樂股份有限公司","臺北市中山區南京東路2段20號11樓之1","No. 20, Section 2, Nanjing E Rd, Zhongshan District, Taipei City, Taiwan 104",25.0518671,121.5288294,"興亞里"
"619",24974501,"心衣有限公司","臺北市大同區承德路1段77巷15號1樓","No. 15, Lane 77, Section 1, Chengde Rd, Datong District, Taipei City, Taiwan 103",25.0521724,121.5180614,"建泰里"
"620",24974951,"網雲市集股份有限公司","臺北市內湖區民權東路6段123巷14號6樓之1","No. 14, Lane 123, Section 6, Minquan E Rd, Neihu District, Taipei City, Taiwan 114",25.0689652,121.5927816,"寶湖里"
"621",24975966,"銳錡音樂製作有限公司","臺北市文山區政大二街206巷14號","Lane 206, Zhengdaer St, Wenshan District, Taipei City, Taiwan 116",24.988146,121.5856574,"Wenshan District"
"622",24976487,"南院旅墅股份有限公司","臺北市大安區和平東路2段357巷9號2樓之1","106, Taiwan, Taipei City, Da’an District, 和平東路二段357巷9號",25.0250896,121.5465074,"群賢里"
"623",24976493,"樺科智慧科技股份有限公司","臺北市中山區敬業一路128巷22號6樓","No. 22, Lane 128, Jingye 1st Rd, Zhongshan District, Taipei City, Taiwan 104",25.0832607,121.5529154,"成巨"
"624",25039832,"煒昌科技股份有限公司","臺北市大同區貴德街77號","No. 77, Guide St, Datong District, Taipei City, Taiwan 103",25.056316,121.508443,"永樂里"
"625",25064515,"儷庭國際有限公司","臺北市信義區吳興街68號","No. 68, Wuxing St, Xinyi District, Taipei City, Taiwan 110",25.0307289,121.5604778,"景聯里"
"626",25078659,"佳宥事業有限公司","臺北市中正區水源路39-5號","No. 3-9, Shuiyuan Rd, Zhongzheng District, Taipei City, Taiwan 100",25.0137255,121.5271946,"富水里"
"627",25092673,"兆婕豐有限公司","臺北市中正區衡陽路36號9樓之11","No. 36, Hengyang Rd, Zhongzheng District, Taipei City, Taiwan 100",25.042175,121.512514,"建國里"
"628",25100168,"安可行銷有限公司","臺北市大安區忠孝東路4段59號9樓之6","No. 59, Section 4, Zhongxiao E Rd, Da’an District, Taipei City, Taiwan 106",25.041791,121.545898,"光武里"
"629",25100765,"青石創意行銷有限公司","臺北市中山區吉林路200巷13號","No. 13, Lane 200, Jilin Rd, Zhongshan District, Taipei City, Taiwan 104",25.0586038,121.5295681,"中庄里"
"630",25101547,"汲境設計有限公司","臺北市大同區長安西路68號4樓","No. 68, Chang'an W Rd, Datong District, Taipei City, Taiwan 103",25.0502323,121.5195381,"建明里"
"631",25101700,"新世界會館顧問有限公司","臺北市信義區基隆路2段109號9樓","No. 109, Section 2, Keelung Rd, Xinyi District, Taipei City, Taiwan 110",25.0290889,121.5573287,"嘉興里"
"632",25101764,"戌富股份有限公司","臺北市內湖區瑞湖街178巷21號4樓","No. 21, Lane 178, Ruihu St, Neihu District, Taipei City, Taiwan 114",25.0708832,121.5755559,"湖元里"
"633",25102399,"同心健康事業有限公司","臺北市大安區大安路1段101巷10號4樓","No. 10, Lane 101, Section 1, Da'an Rd, Da’an District, Taipei City, Taiwan 106",25.0400719,121.5469848,"仁愛里"
"634",25102927,"洛郝思時尚股份有限公司","臺北市中山區中山北路2段42巷12號","No. 12, Lane 42, Section 2, Zhongshan N Rd, Zhongshan District, Taipei City, Taiwan 104",25.0545945,121.521935,"民安里"
"635",25103860,"歐也空間室內裝修設計股份有限公司","臺北市南港區三重路19之6號10樓","No. 19-6, Sanchong Rd, Nangang District, Taipei City, Taiwan 115",25.057063,121.613737,"三重里"
"636",25104299,"基瑟思國際商輔有限公司","臺北市大同區重慶北路1段22號11樓之1","No. 22, Section 1, Chongqing N Rd, Datong District, Taipei City, Taiwan 103",25.0505683,121.5134452,"建巨"
"637",25104707,"固力狗娛樂有限公司","臺北市松山區復興北路313巷30之1號","No. 30-1, Lane 313, Fuxing N Rd, Songshan District, Taipei City, Taiwan 105",25.0588398,121.5463723,"民有里"
"638",25108247,"永利行銷有限公司","臺北市內湖區民權東路6段180巷6樓6號之5","No. 6, Lane 180, Section 6, Minquan E Rd, Neihu District, Taipei City, Taiwan 114",25.0682013,121.5924566,"寶湖里"
"639",25108957,"富貿國際有限公司","臺北市松山區南京東路5段31號10樓","No. 31, Section 5, Nanjing E Rd, Songshan District, Taipei City, Taiwan 105",25.0517805,121.5584054,"東光里"
"640",25111159,"永冠休閒事業有限公司","臺北市南港區忠孝東路6段462巷6號3樓","No. 6, Lane 462, Section 6, Zhongxiao E Rd, Nangang District, Taipei City, Taiwan 115",25.0501269,121.5944324,"新光里"
"641",25112039,"通用新有限公司","臺北市大安區信義路2段208號7樓","No. 208, Section 2, Xinyi Rd, Da’an District, Taipei City, Taiwan 106",25.0334369,121.5307573,"福住里"
"642",25112951,"絕佳創意有限公司","臺北市中山區長安東路2段110號3樓","No. 110, Section 2, Chang'an E Rd, Zhongshan District, Taipei City, Taiwan 104",25.048121,121.535459,"朱園里"
"643",25113305,"台北飛天事業股份有限公司","臺北市大安區忠孝東路3段248巷51弄2號1樓",NA,NA,NA,NA
"644",25113614,"四季婚禮有限公司","臺北市中山區中山北路3段54-1號1樓","No. 54, Section 3, Zhongshan N Rd, Zhongshan District, Taipei City, Taiwan 104",25.0683437,121.5229887,"圓山里"
"645",25113728,"伊識數位創意有限公司","臺北市松山區八德路2段374號10樓之3","No. 374, Section 2, Bade Rd, Songshan District, Taipei City, Taiwan 105",25.0478905,121.54564,"中崙里"
"646",25114634,"雙象文創有限公司","臺北市大同區南京西路193號","No. 193, Nanjing W Rd, Datong District, Taipei City, Taiwan 103",25.054006,121.511946,"朝陽里"
"647",25116513,"星樂園有限公司","臺北市萬華區長沙街2段89號15樓之1","No. 89, Section 2, Changsha St, Wanhua District, Taipei City, Taiwan 108",25.040561,121.504813,"新起里"
"648",25118435,"寺田大中華股份有限公司","臺北市大安區復興南路2段237號9樓之9","No. 237, Section 2, Fuxing S Rd, Da’an District, Taipei City, Taiwan 106",25.026013,121.543826,"群賢里"
"649",25120306,"圓典國際有限公司","臺北市松山區南京東路4段170號2樓之3","No. 170, Section 4, Nanjing E Rd, Songshan District, Taipei City, Taiwan 105",25.0512799,121.55682,"復勢里"
"650",25120586,"毓珍盈國際有限公司","臺北市中山區南京西路1之1號10樓","No. 1-1, Nanjing W Rd, Zhongshan District, Taipei City, Taiwan 104",25.0525607,121.5218506,"民安里"
"651",25120994,"元昌國際股份有限公司","臺北市中山區南京東路3段101號4樓","No. 101, Section 3, Nanjing E Rd, Zhongshan District, Taipei City, Taiwan 104",25.0521886,121.5394471,"復華里"
"652",25122487,"鼎珅國際整合行銷股份有限公司","臺北市中正區忠孝西路1段7號9樓之1","No. 7, Section 1, Zhongxiao W Rd, Zhongzheng District, Taipei City, Taiwan 100",25.0460064,121.5191759,"黎明里"
"653",25122727,"戎鑫實業有限公司","臺北市中正區博愛路25號2樓之7","No. 25, Bo'ai Rd, Zhongzheng District, Taipei City, Taiwan 100",25.045454,121.511497,"光復里"
"654",25123789,"首都展業有限公司","臺北市中正區中華路1段59號3樓之3","No. 59, Section 1, Zhonghua Rd, Zhongzheng District, Taipei City, Taiwan 100",25.0414376,121.5083814,"建國里"
"655",25124801,"花緣花卉有限公司","臺北市松山區塔悠路87號1樓","No. 87, Tayou Rd, Songshan District, Taipei City, Taiwan 105",25.0531639,121.5701997,"新東里"
"656",25124892,"聯合娛樂股份有限公司","臺北市萬華區漢中街50巷6-3號","No. 6, Lane 50, Hanzhong St, Wanhua District, Taipei City, Taiwan 108",25.0440845,121.506693,"萬壽里"
"657",25125029,"連勝行銷股份有限公司","臺北市松山區南京東路5段206號5樓","No. 206, Section 5, Nanjing E Rd, Songshan District, Taipei City, Taiwan 105",25.0511856,121.5649611,"新聚里"
