{
   "results" : [
      {
         "address_components" : [
            {
               "long_name" : "151",
               "short_name" : "151",
               "types" : [ "street_number" ]
            },
            {
               "long_name" : "Zhouzi Street",
               "short_name" : "Zhouzi St",
               "types" : [ "route" ]
            },
            {
               "long_name" : "¦è´ò¨½",
               "short_name" : "¦è´ò¨½",
               "types" : [ "administrative_area_level_4", "political" ]
            },
            {
               "long_name" : "Neihu District",
               "short_name" : "Neihu District",
               "types" : [ "administrative_area_level_3", "political" ]
            },
            {
               "long_name" : "Taipei City",
               "short_name" : "Taipei City",
               "types" : [ "administrative_area_level_1", "political" ]
            },
            {
               "long_name" : "Taiwan",
               "short_name" : "TW",
               "types" : [ "country", "political" ]
            },
            {
               "long_name" : "114",
               "short_name" : "114",
               "types" : [ "postal_code" ]
            }
         ],
         "formatted_address" : "No. 151, Zhouzi St, Neihu District, Taipei City, Taiwan 114",
         "geometry" : {
            "bounds" : {
               "northeast" : {
                  "lat" : 25.0814256,
                  "lng" : 121.568582
               },
               "southwest" : {
                  "lat" : 25.0811359,
                  "lng" : 121.568447
               }
            },
            "location" : {
               "lat" : 25.0812807,
               "lng" : 121.5685145
            },
            "location_type" : "ROOFTOP",
            "viewport" : {
               "northeast" : {
                  "lat" : 25.0826297302915,
                  "lng" : 121.5698634802915
               },
               "southwest" : {
                  "lat" : 25.0799317697085,
                  "lng" : 121.5671655197085
               }
            }
         },
         "place_id" : "ChIJEbfTAm-sQjQRcVCkfBhxlSk",
         "types" : [ "premise" ]
      }
   ],
   "status" : "OK"
}

