{
   "results" : [
      {
         "address_components" : [
            {
               "long_name" : "Alley 12, Lane 15, Section 6, Xinyi Road",
               "short_name" : "Alley 12, Lane 15, Section 6, Xinyi Rd",
               "types" : [ "route" ]
            },
            {
               "long_name" : "¦w±d¨½",
               "short_name" : "¦w±d¨½",
               "types" : [ "administrative_area_level_4", "political" ]
            },
            {
               "long_name" : "Xinyi District",
               "short_name" : "Xinyi District",
               "types" : [ "administrative_area_level_3", "political" ]
            },
            {
               "long_name" : "Taipei City",
               "short_name" : "Taipei City",
               "types" : [ "administrative_area_level_1", "political" ]
            },
            {
               "long_name" : "Taiwan",
               "short_name" : "TW",
               "types" : [ "country", "political" ]
            },
            {
               "long_name" : "110",
               "short_name" : "110",
               "types" : [ "postal_code" ]
            }
         ],
         "formatted_address" : "Alley 12, Lane 15, Section 6, Xinyi Rd, Xinyi District, Taipei City, Taiwan 110",
         "geometry" : {
            "bounds" : {
               "northeast" : {
                  "lat" : 25.035063,
                  "lng" : 121.57541
               },
               "southwest" : {
                  "lat" : 25.0341969,
                  "lng" : 121.5748998
               }
            },
            "location" : {
               "lat" : 25.0343392,
               "lng" : 121.5751661
            },
            "location_type" : "GEOMETRIC_CENTER",
            "viewport" : {
               "northeast" : {
                  "lat" : 25.0359789302915,
                  "lng" : 121.5765038802915
               },
               "southwest" : {
                  "lat" : 25.0332809697085,
                  "lng" : 121.5738059197085
               }
            }
         },
         "partial_match" : true,
         "place_id" : "ChIJtX4_Y6-rQjQR_lKikYM8sWQ",
         "types" : [ "route" ]
      }
   ],
   "status" : "OK"
}

