{
   "results" : [
      {
         "address_components" : [
            {
               "long_name" : "125",
               "short_name" : "125",
               "types" : [ "street_number" ]
            },
            {
               "long_name" : "Section 1, Roosevelt Road",
               "short_name" : "Section 1, Roosevelt Rd",
               "types" : [ "route" ]
            },
            {
               "long_name" : "新營里",
               "short_name" : "新營里",
               "types" : [ "administrative_area_level_4", "political" ]
            },
            {
               "long_name" : "Zhongzheng District",
               "short_name" : "Zhongzheng District",
               "types" : [ "administrative_area_level_3", "political" ]
            },
            {
               "long_name" : "Taipei City",
               "short_name" : "Taipei City",
               "types" : [ "administrative_area_level_1", "political" ]
            },
            {
               "long_name" : "Taiwan",
               "short_name" : "TW",
               "types" : [ "country", "political" ]
            },
            {
               "long_name" : "100",
               "short_name" : "100",
               "types" : [ "postal_code" ]
            }
         ],
         "formatted_address" : "No. 125, Section 1, Roosevelt Rd, Zhongzheng District, Taipei City, Taiwan 100",
         "geometry" : {
            "bounds" : {
               "northeast" : {
                  "lat" : 25.030424,
                  "lng" : 121.5204114
               },
               "southwest" : {
                  "lat" : 25.0302811,
                  "lng" : 121.5202527
               }
            },
            "location" : {
               "lat" : 25.0303525,
               "lng" : 121.5203321
            },
            "location_type" : "ROOFTOP",
            "viewport" : {
               "northeast" : {
                  "lat" : 25.0317015302915,
                  "lng" : 121.5216810302915
               },
               "southwest" : {
                  "lat" : 25.0290035697085,
                  "lng" : 121.5189830697085
               }
            }
         },
         "place_id" : "ChIJwRq95pupQjQRK3MeIgmGQLQ",
         "types" : [ "premise" ]
      }
   ],
   "status" : "OK"
}

