{
   "results" : [
      {
         "address_components" : [
            {
               "long_name" : "352",
               "short_name" : "352",
               "types" : [ "street_number" ]
            },
            {
               "long_name" : "Xizang Road",
               "short_name" : "Xizang Rd",
               "types" : [ "route" ]
            },
            {
               "long_name" : "Âù¶é¨½",
               "short_name" : "Âù¶é¨½",
               "types" : [ "administrative_area_level_4", "political" ]
            },
            {
               "long_name" : "Wanhua District",
               "short_name" : "Wanhua District",
               "types" : [ "administrative_area_level_3", "political" ]
            },
            {
               "long_name" : "Taipei City",
               "short_name" : "Taipei City",
               "types" : [ "administrative_area_level_1", "political" ]
            },
            {
               "long_name" : "Taiwan",
               "short_name" : "TW",
               "types" : [ "country", "political" ]
            },
            {
               "long_name" : "108",
               "short_name" : "108",
               "types" : [ "postal_code" ]
            }
         ],
         "formatted_address" : "No. 352, Xizang Rd, Wanhua District, Taipei City, Taiwan 108",
         "geometry" : {
            "bounds" : {
               "northeast" : {
                  "lat" : 25.0296449,
                  "lng" : 121.499313
               },
               "southwest" : {
                  "lat" : 25.0294896,
                  "lng" : 121.4992149
               }
            },
            "location" : {
               "lat" : 25.0295672,
               "lng" : 121.4992639
            },
            "location_type" : "ROOFTOP",
            "viewport" : {
               "northeast" : {
                  "lat" : 25.0309162302915,
                  "lng" : 121.5006129302915
               },
               "southwest" : {
                  "lat" : 25.02821826970849,
                  "lng" : 121.4979149697085
               }
            }
         },
         "place_id" : "ChIJ58QKt7GpQjQR0l3K2Te14BM",
         "types" : [ "premise" ]
      }
   ],
   "status" : "OK"
}

