{
   "results" : [
      {
         "address_components" : [
            {
               "long_name" : "Lane 346, Guangfu South Road",
               "short_name" : "Lane 346, Guangfu S Rd",
               "types" : [ "route" ]
            },
            {
               "long_name" : "Da¡¦an District",
               "short_name" : "Da¡¦an District",
               "types" : [ "administrative_area_level_3", "political" ]
            },
            {
               "long_name" : "Taipei City",
               "short_name" : "Taipei City",
               "types" : [ "administrative_area_level_1", "political" ]
            },
            {
               "long_name" : "Taiwan",
               "short_name" : "TW",
               "types" : [ "country", "political" ]
            },
            {
               "long_name" : "106",
               "short_name" : "106",
               "types" : [ "postal_code" ]
            }
         ],
         "formatted_address" : "Lane 346, Guangfu S Rd, Da¡¦an District, Taipei City, Taiwan 106",
         "geometry" : {
            "bounds" : {
               "northeast" : {
                  "lat" : 25.0385384,
                  "lng" : 121.5572029
               },
               "southwest" : {
                  "lat" : 25.0382374,
                  "lng" : 121.5552329
               }
            },
            "location" : {
               "lat" : 25.0384131,
               "lng" : 121.5567299
            },
            "location_type" : "GEOMETRIC_CENTER",
            "viewport" : {
               "northeast" : {
                  "lat" : 25.0397368802915,
                  "lng" : 121.5575668802915
               },
               "southwest" : {
                  "lat" : 25.0370389197085,
                  "lng" : 121.5548689197085
               }
            }
         },
         "partial_match" : true,
         "place_id" : "ChIJHbrShMirQjQRIaTC9mtB5zg",
         "types" : [ "route" ]
      }
   ],
   "status" : "OK"
}

